~Version Information
 VERS.                  2.0:   CWLS log ASCII Standard -VERSION 2.0
 WRAP.                   NO:   One line per depth step
~Well Information Block
#MNEM.UNIT       Data Type    Information
#---------     -----------    ---------------------------
 STRT.F              5417.0000:
 STOP.F              8969.0000:
 STEP.F                 0.2500:
 NULL.               -999.2500:
~Parameter Information Block
#MNEM.UNIT       Value        Description
#---------     -----------    ---------------------------
~Curve Information Block
#MNEM.UNIT                 API CODE     Curve Description
#---------               -----------    ---------------------------
 DEPT.F                 00 000 000 000:  
 FPRES.PSIA             00 000 000 000:  FORMATION_PRESSURE                     
 FTEMP.DEGF             00 000 000 000:  FORMATION_TEMPERATURE                  
 GR  .api               00 000 000 000:  Gamma API                              
 MBVIT1.PU              00 000 000 000:  T1_IRREDUCIBLE_POROSITY_MAX(CUT-OFF,_SP
 MCBWT1.PU              00 000 000 000:  T1_MICRO-POROSITY                      
 MPHIT1.PU              00 000 000 000:  T1_EFFECTIVE_POROSITY                  
 MSIGT1.PU              00 000 000 000:  T1_TOTAL_POROSITY                      
 T1KCOAT.MD             00 000 000 000:  T1_DIST._COATES_PERMEABILITY           
 T1PIRRMX.PU            00 000 000 000:  T1_DIST._MAXIMUM_IRREDUCIBLE_POROSITY  
 T1PMIC.PU              00 000 000 000:  T1_DIST._MICRO-POROSITY                
 T1PTOT.PU              00 000 000 000:  T1_DIST._TOTAL_POROSITY                
 T2KCOAT.MD             00 000 000 000:  T2_DIST._COATES_PERMEABILITY           
 T2PIRRMX.PU            00 000 000 000:  T2_DIST._MAXIMUM_IRREDUCIBLE_POROSITY  
 T2PMIC.PU              00 000 000 000:  T2_DIST._MICRO-POROSITY                
 T2PTOT.PU              00 000 000 000:  T2_DIST._TOTAL_POROSITY                
 CALI.in                00 000 000 000:  Caliper                                
 DPHI.decp              00 000 000 000:  DensityPorosity                        
 NPHI.decp              00 000 000 000:  Neutron Porosity                       
 PE  .b/e               00 000 000 000:  Pe                                     
 RHOB.g/cc              00 000 000 000:  Density                                
 TENS.lbs               00 000 000 000:  Tension                                
 BPERMF.                00 000 000 000:                                         
 BBINF.                 00 000 000 000:                                         
~A  DEPT        FPRES      FTEMP      GR        MBVIT1     MCBWT1     MPHIT1     MSIGT1     T1KCOAT   T1PIRRMX    T1PMIC     T1PTOT     T2KCOAT   T2PIRRMX    T2PMIC     T2PTOT      CALI       DPHI       NPHI       PE         RHOB       TENS      BPERMF      BBINF  
# ...
 8958.7500  4671.4907   182.6699  -999.2500     2.6767     1.3759     3.6448     5.0208     0.0036     4.0527     1.3759     5.0208     0.0032     4.1043     1.2300     5.0208  -999.2500  -999.2500  -999.2500  -999.2500  -999.2500  5373.1494     0.0231     0.0703 
 8959.0000  4671.6206   182.6730  -999.2500     2.7064     1.1299     3.8393     4.9692     0.0053     3.8363     1.1299     4.9692     0.0029     4.0780     0.8074     4.9692  -999.2500  -999.2500  -999.2500  -999.2500  -999.2500  5370.8188     0.0378     0.0422 
 8959.2500  4671.7505   182.6761  -999.2500     2.5329     0.8196     3.9918     4.8114     0.0104     3.3524     0.8196     4.8114     0.0034     3.8430     0.4297     4.8114  -999.2500  -999.2500  -999.2500  -999.2500  -999.2500  5302.8779     0.0335     0.0208 
 8959.5000  4671.8804   182.6793  -999.2500     2.2722     0.5027     4.0186     4.5213     0.0167     2.7749     0.5027     4.5213     0.0034     3.5161     0.1690     4.5213  -999.2500  -999.2500  -999.2500  -999.2500  -999.2500  5234.9375     0.0213     0.0085 
 8959.7500  4672.0107   182.6824  -999.2500     2.0086     0.2464     3.8539     4.1003     0.0190     2.2551     0.2464     4.1003     0.0023     3.2041     0.0444     4.1003  -999.2500  -999.2500  -999.2500  -999.2500  -999.2500  5321.6885     0.0069     0.0032 
 8960.0000  4672.1406   182.6856  -999.2500     1.7458     0.0875     3.5067     3.5942     0.0154     1.8333     0.0875     3.5942     0.0010     2.8924     0.0035     3.5942  -999.2500  -999.2500  -999.2500  -999.2500  -999.2500  5408.4390     0.0018     0.0015 
 8960.2500  4672.2705   182.6887  -999.2500     1.5669     0.0248     3.1068     3.1316     0.0092     1.5917     0.0248     3.1316     0.0005     2.5532     0.0001     3.1316  -999.2500  -999.2500  -999.2500  -999.2500  -999.2500  5365.2852     0.0005     0.0011 
 8960.5000  4672.4004   182.6919  -999.2500     1.5494     0.0046     2.7708     2.7754     0.0039     1.5539     0.0046     2.7754     0.0003     2.2424     0.0000     2.7754  -999.2500  -999.2500  -999.2500  -999.2500  -999.2500  5322.1309     0.0002     0.0010 
 8960.7500  4672.5308   182.6950  -999.2500     1.6357     0.0004     2.5223     2.5227     0.0013     1.6361     0.0004     2.5227     0.0003     1.9995     0.0000     2.5227  -999.2500  -999.2500  -999.2500  -999.2500  -999.2500  5323.7495     0.0001     0.0010 
 8961.0000  4672.6606   182.6982  -999.2500     1.6678     0.0000     2.3303     2.3303     0.0005     1.6678     0.0000     2.3303     0.0003     1.7758     0.0000     2.3303  -999.2500  -999.2500  -999.2500  -999.2500  -999.2500  5325.3682     0.0000     0.0013 
 8961.2500  4672.7905   182.7013  -999.2500     1.5408     0.0000     2.1795     2.1795     0.0004     1.5408     0.0000     2.1795     0.0005     1.4886     0.0000     2.1795  -999.2500  -999.2500  -999.2500  -999.2500  -999.2500  5361.5317     0.0000     0.0018 
 8961.5000  4672.9204   182.7045  -999.2500     1.3668     0.0000     2.0937     2.0937     0.0006     1.3668     0.0000     2.0937     0.0014     1.1548     0.0000     2.0937  -999.2500  -999.2500  -999.2500  -999.2500  -999.2500  5397.6953     0.0000     0.0022 
 8961.7500  4673.0503   182.7076  -999.2500     1.2810     0.0002     2.1223     2.1225     0.0009     1.2812     0.0002     2.1225     0.0046     0.8651     0.0000     2.1225  -999.2500  -999.2500  -999.2500  -999.2500  -999.2500  5407.9180     0.0000     0.0021 
 8962.0000  4673.1807   182.7107  -999.2500     1.3940     0.0008     2.2968     2.2976     0.0012     1.3948     0.0008     2.2976     0.0107     0.7773     0.0000     2.2976  -999.2500  -999.2500  -999.2500  -999.2500  -999.2500  5418.1411     0.0000     0.0016 
 8962.2500  4673.3105   182.7139  -999.2500     1.7080     0.0314     2.5861     2.6175     0.0012     1.7394     0.0314     2.6175     0.0130     0.9861     0.0294     2.6175  -999.2500  -999.2500  -999.2500  -999.2500  -999.2500  5361.8174     0.0000     0.0013 
 8962.5000  4673.4404   182.7170  -999.2500     2.0322     0.1780     2.8549     3.0329     0.0012     2.2103     0.1780     3.0329     0.0111     1.4211     0.1764     3.0329  -999.2500  -999.2500  -999.2500  -999.2500  -999.2500  5305.4937     0.0000     0.0025 
 8962.7500  4673.5703   182.7202  -999.2500     2.1468     0.6063     2.9689     3.5753     0.0015     2.7531     0.6063     3.5753     0.0085     2.0801     0.6096     3.5753  -999.2500  -999.2500  -999.2500  -999.2500  -999.2500  5344.1055     0.0003     0.0066 
 8963.0000  4673.7007   182.7233  -999.2500     1.9606     1.4750     2.8880     4.3629     0.0026     3.4355     1.4750     4.3629     0.0066     3.0583     1.4891     4.3629  -999.2500  -999.2500  -999.2500  -999.2500  -999.2500  5382.7168     0.0009     0.0143 
 8963.2500  4673.8306   182.7265  -999.2500     1.5592     2.8121     2.6567     5.4687     0.0057     4.3713     2.8121     5.4687     0.0045     4.4699     2.8484     5.4687  -999.2500  -999.2500  -999.2500  -999.2500  -999.2500  5446.1768     0.0016     0.0246 
 8963.5000  4673.9604   182.7296  -999.2500     1.2656     4.2146     2.4022     6.6167     0.0082     5.4801     4.2146     6.6167     0.0023     5.9751     4.2908     6.6167  -999.2500  -999.2500  -999.2500  -999.2500  -999.2500  5509.6362     0.0016     0.0336 
 8963.7500  4674.0903   182.7327  -999.2500     1.2498     5.2884     2.1880     7.4764     0.0065     6.5382     5.2884     7.4764     0.0007     7.1401     5.4321     7.4764  -999.2500  -999.2500  -999.2500  -999.2500  -999.2500  5459.6533     0.0010     0.0369 
 8964.0000  4674.2207   182.7359  -999.2500     1.5025     5.7529     2.0708     7.8237     0.0023     7.2554     5.7529     7.8237     0.0001     7.6834     5.9785     7.8237  -999.2500  -999.2500  -999.2500  -999.2500  -999.2500  5409.6709     0.0004     0.0337 
 8964.2500  4674.3506   182.7390  -999.2500     1.9058     5.3965     2.1635     7.5600     0.0004     7.3023     5.3965     7.5600     0.0000     7.4954     5.6605     7.5600  -999.2500  -999.2500  -999.2500  -999.2500  -999.2500  5402.9385     0.0000     0.0290 
 8964.5000  4674.4805   182.7422  -999.2500     2.3362     4.4702     2.4562     6.9263     0.0001     6.8064     4.4702     6.9263     0.0000     6.8597     4.6894     6.9263  -999.2500  -999.2500  -999.2500  -999.2500  -999.2500  5396.2056     0.0000     0.0305 
 8964.7500  4674.6104   182.7453  -999.2500     2.7859     3.2017     2.9323     6.1341     0.0001     5.9877     3.2017     6.1341     0.0001     5.9883     3.3043     6.1341  -999.2500  -999.2500  -999.2500  -999.2500  -999.2500  5438.7715     0.0000     0.0427 
 8965.0000  4674.7407   182.7485  -999.2500     3.2166     1.8875     3.4946     5.3822     0.0002     5.1041     1.8875     5.3822     0.0003     5.0941     1.8692     5.3822  -999.2500  -999.2500  -999.2500  -999.2500  -999.2500  5481.3374     0.0000     0.0635 
 8965.2500  4674.8706   182.7516  -999.2500     3.5202     0.8927     3.9613     4.8540     0.0006     4.4128     0.8927     4.8540     0.0006     4.4050     0.8249     4.8540  -999.2500  -999.2500  -999.2500  -999.2500  -999.2500  5440.7207     0.0000     0.0863 
 8965.5000  4675.0005   182.7548  -999.2500     3.6761     0.3148     4.2417     4.5565     0.0009     3.9909     0.3148     4.5565     0.0009     3.9912     0.2582     4.5565  -999.2500  -999.2500  -999.2500  -999.2500  -999.2500  5400.1035     0.0000     0.1043 
 8965.7500  4675.1304   182.7579  -999.2500     3.7198     0.0774     4.3601     4.4376     0.0011     3.7972     0.0774     4.4376     0.0010     3.8300     0.0479     4.4376  -999.2500  -999.2500  -999.2500  -999.2500  -999.2500  5411.7607     0.0000     0.1132 
 8966.0000  4675.2603   182.7610  -999.2500     3.6649     0.0150     4.3883     4.4034     0.0015     3.6799     0.0150     4.4034     0.0009     3.8267     0.0000     4.4034  -999.2500  -999.2500  -999.2500  -999.2500  -999.2500  5423.4175     0.0009     0.1114 
 8966.2500  4675.3906   182.7642  -999.2500     3.4008     0.0243     4.3222     4.3465     0.0027     3.4251     0.0243     4.3465     0.0006     3.8335     0.0000     4.3465  -999.2500  -999.2500  -999.2500  -999.2500  -999.2500  5397.8408     0.0025     0.1000 
