~Version Information
 VERS.                  2.0:   CWLS log ASCII Standard -VERSION 2.0
 WRAP.                   NO:   One line per depth step
~Well Information Block
#MNEM.UNIT       Data Type    Information
#---------     -----------    ---------------------------
 STRT.F              5417.0000:
 STOP.F              8969.0000:
 STEP.F                 0.2500:
 NULL.               -999.2500:
~Parameter Information Block
#MNEM.UNIT       Value        Description
#---------     -----------    ---------------------------
~Curve Information Block
#MNEM.UNIT                 API CODE     Curve Description
#---------               -----------    ---------------------------
 DEPT.F                 00 000 000 000:  
 FPRES.PSIA             00 000 000 000:  FORMATION_PRESSURE                     
 FTEMP.DEGF             00 000 000 000:  FORMATION_TEMPERATURE                  
 GR  .api               00 000 000 000:  Gamma API                              
 MBVIT1.PU              00 000 000 000:  T1_IRREDUCIBLE_POROSITY_MAX(CUT-OFF,_SP
 MCBWT1.PU              00 000 000 000:  T1_MICRO-POROSITY                      
 MPHIT1.PU              00 000 000 000:  T1_EFFECTIVE_POROSITY                  
 MSIGT1.PU              00 000 000 000:  T1_TOTAL_POROSITY                      
 T1KCOAT.MD             00 000 000 000:  T1_DIST._COATES_PERMEABILITY           
 T1PIRRMX.PU            00 000 000 000:  T1_DIST._MAXIMUM_IRREDUCIBLE_POROSITY  
 T1PMIC.PU              00 000 000 000:  T1_DIST._MICRO-POROSITY                
 T1PTOT.PU              00 000 000 000:  T1_DIST._TOTAL_POROSITY                
 T2KCOAT.MD             00 000 000 000:  T2_DIST._COATES_PERMEABILITY           
 T2PIRRMX.PU            00 000 000 000:  T2_DIST._MAXIMUM_IRREDUCIBLE_POROSITY  
 T2PMIC.PU              00 000 000 000:  T2_DIST._MICRO-POROSITY                
 T2PTOT.PU              00 000 000 000:  T2_DIST._TOTAL_POROSITY                
 CALI.in                00 000 000 000:  Caliper                                
 DPHI.decp              00 000 000 000:  DensityPorosity                        
 NPHI.decp              00 000 000 000:  Neutron Porosity                       
 PE  .b/e               00 000 000 000:  Pe                                     
 RHOB.g/cc              00 000 000 000:  Density                                
 TENS.lbs               00 000 000 000:  Tension                                
 BPERMF.                00 000 000 000:                                         
 BBINF.                 00 000 000 000:                                         
~A  DEPT        FPRES      FTEMP      GR        MBVIT1     MCBWT1     MPHIT1     MSIGT1     T1KCOAT   T1PIRRMX    T1PMIC     T1PTOT     T2KCOAT   T2PIRRMX    T2PMIC     T2PTOT      CALI       DPHI       NPHI       PE         RHOB       TENS      BPERMF      BBINF  
# ...
 7308.0000  3811.3696   161.9092   100.3065     3.0066     0.8586     4.2683     5.1269     0.0074     3.8651     0.8586     5.1269     0.0041     4.1233     0.6724     5.1269     8.8633     0.0874     0.1714     2.9910     2.5692  4847.0327     0.0013     0.0057 
 7308.2500  3811.4993   161.9123   103.2475     3.1724     1.2244     3.9794     5.2037     0.0025     4.3968     1.2244     5.2037     0.0016     4.5277     1.1551     5.2037     8.8637     0.0917     0.1826     2.8829     2.5623  4895.1387     0.0003     0.0185 
 7308.5000  3811.6294   161.9155   106.1884     2.8822     2.2270     3.4922     5.7192     0.0015     5.1093     2.2270     5.7192     0.0013     5.1535     2.2546     5.7192     8.8640     0.0961     0.1939     2.7749     2.5553  4943.2441     0.0001     0.0483 
 7308.7500  3811.7595   161.9186   107.7702     2.2787     3.6748     2.8985     6.5733     0.0020     5.9535     3.6748     6.5733     0.0020     5.9605     3.7512     6.5733     8.8668     0.0988     0.2052     2.7701     2.5510  4900.0400     0.0000     0.1033 
 7309.0000  3811.8894   161.9218   109.3520     1.5801     5.2571     2.3132     7.5703     0.0038     6.8372     5.2571     7.5703     0.0039     6.8283     5.3567     7.5703     8.8695     0.1015     0.2165     2.7654     2.5466  4856.8354     0.0000     0.1851 
 7309.2500  3812.0193   161.9249   110.3996     0.9951     6.7529     1.8659     8.6188     0.0071     7.7480     6.7529     8.6188     0.0076     7.7201     6.8763     8.6188     8.8666     0.1061     0.2140     2.7635     2.5392  4887.7388     0.0062     0.2787 
 7309.5000  3812.1494   161.9280   111.4472     0.5977     8.0795     1.5954     9.6749     0.0117     8.6772     8.0795     9.6749     0.0135     8.6147     8.2221     9.6749     8.8637     0.1107     0.2114     2.7616     2.5318  4918.6421     0.0194     0.3499 
 7309.7500  3812.2793   161.9312   109.8777     0.4030     9.0975     1.5129    10.6104     0.0174     9.5005     9.0975    10.6104     0.0223     9.3737     9.2306    10.6104     8.8639     0.1153     0.2080     2.7506     2.5243  4901.5293     0.0399     0.3625 
 7310.0000  3812.4094   161.9343   108.3082     0.3989     9.6347     1.6122    11.2469     0.0234    10.0335     9.6347    11.2469     0.0345     9.8071     9.7332    11.2469     8.8642     0.1200     0.2046     2.7396     2.5168  4884.4170     0.0554     0.3085 
 7310.2500  3812.5393   161.9375   103.9968     0.5320     9.5125     1.8662    11.3787     0.0296    10.0444     9.5125    11.3787     0.0494     9.7139     9.5757    11.3787     8.8547     0.1195     0.2013     2.7913     2.5175  4884.1030     0.0633     0.2181 
 7310.5000  3812.6694   161.9406    99.6855     0.7298     8.8653     2.1969    11.0622     0.0350     9.5951     8.8653    11.0622     0.0605     9.2108     8.9059    11.0622     8.8452     0.1191     0.1979     2.8431     2.5183  4883.7891     0.0611     0.1366 
 7310.7500  3812.7993   161.9438    95.9261     0.9780     7.8113     2.5522    10.3635     0.0370     8.7893     7.8113    10.3635     0.0610     8.4265     7.8448    10.3635     8.8368     0.1138     0.1887     2.9615     2.5268  4897.7314     0.0531     0.0915 
 7311.0000  3812.9294   161.9469    92.1666     1.3165     6.4625     2.9133     9.3758     0.0326     7.7790     6.4625     9.3758     0.0482     7.5014     6.5431     9.3758     8.8283     0.1085     0.1795     3.0800     2.5353  4911.6743     0.0406     0.0840 
 7311.2500  3813.0593   161.9501    87.2863     1.8168     4.9962     3.3327     8.3289     0.0240     6.8130     4.9962     8.3289     0.0312     6.6444     5.2977     8.3289     8.8222     0.0997     0.1624     3.2070     2.5495  4895.9619     0.0273     0.1006 
 7311.5000  3813.1895   161.9532    82.4059     2.4950     3.6389     3.8959     7.5348     0.0169     6.1339     3.6389     7.5348     0.0195     6.0532     4.4161     7.5348     8.8160     0.0909     0.1453     3.3341     2.5637  4880.2500     0.0171     0.1277 
 7311.7500  3813.3193   161.9563    75.0005     3.2204     2.5909     4.4979     7.0888     0.0123     5.8113     2.5909     7.0888     0.0130     5.7816     3.9728     7.0888     8.8141     0.0795     0.1322     3.4351     2.5820  4904.0898     0.0106     0.1551 
 7312.0000  3813.4495   161.9595    67.5951     3.6575     2.0711     4.7878     6.8589     0.0086     5.7286     2.0711     6.8589     0.0087     5.7224     3.8636     6.8589     8.8121     0.0682     0.1192     3.5361     2.6003  4927.9297     0.0065     0.1765 
 7312.2500  3813.5793   161.9626    61.8652     3.3434     2.2724     4.2865     6.5589     0.0053     5.6158     2.2724     6.5589     0.0053     5.6144     3.8498     6.5589     8.8074     0.0584     0.1042     3.6426     2.6160  4912.1504     0.0030     0.1875 
 7312.5000  3813.7095   161.9658    56.1353     2.5344     2.7807     3.3122     6.0928     0.0030     5.3151     2.7807     6.0928     0.0030     5.3151     3.6844     6.0928     8.8026     0.0486     0.0893     3.7491     2.6317  4896.3706     0.0010     0.1845 
 7312.7500  3813.8394   161.9689    51.5397     1.7119     3.0532     2.4093     5.4625     0.0019     4.7651     3.0532     5.4625     0.0019     4.7651     3.2149     5.4625     8.7992     0.0409     0.0840     3.9177     2.6441  4931.1782     0.0000     0.1660 
 7313.0000  3813.9695   161.9721    46.9441     1.2267     2.7758     1.9590     4.7348     0.0017     4.0025     2.7758     4.7348     0.0017     4.0025     2.4727     4.7348     8.7958     0.0332     0.0788     4.0863     2.6565  4965.9858     0.0000     0.1369 
 7313.2500  3814.0991   161.9752    46.3381     1.1239     2.0221     1.9761     3.9982     0.0019     3.1460     2.0221     3.9982     0.0019     3.1460     1.6414     3.9982     8.7914     0.0315     0.0776     4.1702     2.6592  4963.6328     0.0000     0.1086 
 7313.5000  3814.2292   161.9783    45.7321     1.1932     1.2117     2.1368     3.3485     0.0019     2.4049     1.2117     3.3485     0.0019     2.4049     0.9161     3.3485     8.7870     0.0299     0.0765     4.2542     2.6618  4961.2803     0.0000     0.0925 
 7313.7500  3814.3594   161.9815    52.9202     1.3574     0.5743     2.2868     2.8612     0.0016     1.9318     0.5743     2.8612     0.0016     1.9315     0.3992     2.8612     8.7958     0.0398     0.0825     4.1177     2.6459  4942.4092     0.0000     0.0924 
 7314.0000  3814.4895   161.9846    60.1083     1.6041     0.1958     2.3912     2.5870     0.0009     1.7999     0.1958     2.5870     0.0009     1.7993     0.1157     2.5870     8.8047     0.0496     0.0885     3.9812     2.6301  4923.5381     0.0000     0.1035 
 7314.2500  3814.6191   161.9878    68.5089     1.9145     0.0637     2.5038     2.5675     0.0004     1.9782     0.0637     2.5675     0.0004     1.9772     0.0264     2.5675     8.8053     0.0613     0.1101     3.8207     2.6114  4939.9785     0.0000     0.1207 
 7314.5000  3814.7493   161.9909    76.9094     2.1884     0.0690     2.6638     2.7328     0.0002     2.2574     0.0690     2.7328     0.0002     2.2562     0.0233     2.7328     8.8058     0.0729     0.1316     3.6601     2.5926  4956.4185     0.0000     0.1460 
 7314.7500  3814.8794   161.9941    80.6035     2.3016     0.2165     2.8428     3.0592     0.0004     2.5180     0.2165     3.0592     0.0004     2.5171     0.1179     3.0592     8.8085     0.0789     0.1433     3.5788     2.5830  4935.3350     0.0021     0.1850 
 7315.0000  3815.0093   161.9972    84.2976     2.1655     0.5950     2.9533     3.5483     0.0013     2.7606     0.5950     3.5483     0.0013     2.7601     0.4101     3.5483     8.8112     0.0849     0.1550     3.4974     2.5733  4914.2510     0.0072     0.2375 
 7315.2500  3815.1392   162.0004    86.5470     1.8060     1.3128     2.9123     4.2252     0.0042     3.1188     1.3128     4.2252     0.0042     3.1187     1.0940     4.2252     8.8163     0.0878     0.1615     3.3991     2.5686  4934.6016     0.0159     0.2914 
 7315.5000  3815.2693   162.0035    88.7963     1.5093     2.1699     2.8303     5.0002     0.0082     3.6792     2.1699     5.0002     0.0082     3.6792     2.0830     5.0002     8.8214     0.0907     0.1680     3.3008     2.5640  4954.9517     0.0249     0.3266 
