~Version Information
 VERS.                  2.0:   CWLS log ASCII Standard -VERSION 2.0
 WRAP.                   NO:   One line per depth step
~Well Information Block
#MNEM.UNIT       Data Type    Information
#---------     -----------    ---------------------------
 STRT.F              5417.0000:
 STOP.F              8969.0000:
 STEP.F                 0.2500:
 NULL.               -999.2500:
~Parameter Information Block
#MNEM.UNIT       Value        Description
#---------     -----------    ---------------------------
~Curve Information Block
#MNEM.UNIT                 API CODE     Curve Description
#---------               -----------    ---------------------------
 DEPT.F                 00 000 000 000:  
 FPRES.PSIA             00 000 000 000:  FORMATION_PRESSURE                     
 FTEMP.DEGF             00 000 000 000:  FORMATION_TEMPERATURE                  
 GR  .api               00 000 000 000:  Gamma API                              
 MBVIT1.PU              00 000 000 000:  T1_IRREDUCIBLE_POROSITY_MAX(CUT-OFF,_SP
 MCBWT1.PU              00 000 000 000:  T1_MICRO-POROSITY                      
 MPHIT1.PU              00 000 000 000:  T1_EFFECTIVE_POROSITY                  
 MSIGT1.PU              00 000 000 000:  T1_TOTAL_POROSITY                      
 T1KCOAT.MD             00 000 000 000:  T1_DIST._COATES_PERMEABILITY           
 T1PIRRMX.PU            00 000 000 000:  T1_DIST._MAXIMUM_IRREDUCIBLE_POROSITY  
 T1PMIC.PU              00 000 000 000:  T1_DIST._MICRO-POROSITY                
 T1PTOT.PU              00 000 000 000:  T1_DIST._TOTAL_POROSITY                
 T2KCOAT.MD             00 000 000 000:  T2_DIST._COATES_PERMEABILITY           
 T2PIRRMX.PU            00 000 000 000:  T2_DIST._MAXIMUM_IRREDUCIBLE_POROSITY  
 T2PMIC.PU              00 000 000 000:  T2_DIST._MICRO-POROSITY                
 T2PTOT.PU              00 000 000 000:  T2_DIST._TOTAL_POROSITY                
 CALI.in                00 000 000 000:  Caliper                                
 DPHI.decp              00 000 000 000:  DensityPorosity                        
 NPHI.decp              00 000 000 000:  Neutron Porosity                       
 PE  .b/e               00 000 000 000:  Pe                                     
 RHOB.g/cc              00 000 000 000:  Density                                
 TENS.lbs               00 000 000 000:  Tension                                
 BPERMF.                00 000 000 000:                                         
 BBINF.                 00 000 000 000:                                         
~A  DEPT        FPRES      FTEMP      GR        MBVIT1     MCBWT1     MPHIT1     MSIGT1     T1KCOAT   T1PIRRMX    T1PMIC     T1PTOT     T2KCOAT   T2PIRRMX    T2PMIC     T2PTOT      CALI       DPHI       NPHI       PE         RHOB       TENS      BPERMF      BBINF  
# ...
 6122.2500  3194.3899   146.9966   115.5086     1.8605     6.6648     2.6312     9.2960     0.0061     8.5253     6.6648     9.2960     0.0061     8.5286     5.5769     9.2960     8.8540     0.0950     0.2022     3.1227     2.5570  4434.2231     0.0000     0.1406 
 6122.5000  3194.5198   146.9997   117.4491     1.6839     6.8332     2.2975     9.1307     0.0037     8.5171     6.8332     9.1307     0.0036     8.5249     5.6781     9.1307     8.8483     0.0995     0.2042     3.1626     2.5498  4454.6572     0.0000     0.1284 
 6122.7500  3194.6499   147.0029   120.9344     1.6125     6.7926     2.0520     8.8446     0.0017     8.4051     6.7926     8.8446     0.0016     8.4159     5.6198     8.8446     8.8483     0.1002     0.2080     3.1707     2.5487  4441.1582     0.0000     0.1066 
 6123.0000  3194.7798   147.0060   124.4198     1.6198     6.4472     1.8930     8.3401     0.0006     8.0669     6.4472     8.3401     0.0005     8.0766     5.2474     8.3401     8.8483     0.1009     0.2119     3.1788     2.5476  4427.6587     0.0000     0.0775 
 6123.2500  3194.9099   147.0092   126.2013     1.6745     5.9136     1.8329     7.7465     0.0002     7.5880     5.9136     7.7465     0.0002     7.5931     4.7467     7.7465     8.8469     0.1025     0.2158     3.1480     2.5450  4455.6099     0.0000     0.0481 
 6123.5000  3195.0398   147.0123   127.9828     1.8115     5.4236     1.9426     7.3661     0.0001     7.2350     5.4236     7.3661     0.0001     7.2367     4.5321     7.3661     8.8455     0.1041     0.2197     3.1172     2.5424  4483.5610     0.0000     0.0255 
 6123.7500  3195.1697   147.0154   127.6257     2.1702     4.9734     2.3505     7.3239     0.0002     7.1435     4.9734     7.3239     0.0002     7.1438     4.7889     7.3239     8.8436     0.1073     0.2145     3.0975     2.5372  4448.1987     0.0000     0.0122 
 6124.0000  3195.2998   147.0186   127.2687     2.7938     4.5982     3.0671     7.6653     0.0005     7.3920     4.5982     7.6653     0.0005     7.3920     5.5770     7.6653     8.8418     0.1106     0.2093     3.0779     2.5320  4412.8364     0.0000     0.0059 
 6124.2500  3195.4299   147.0217   125.1832     3.2965     4.6204     3.7048     8.3251     0.0013     7.9169     4.6204     8.3251     0.0013     7.9137     6.7220     8.3251     8.8477     0.1093     0.2066     3.0854     2.5340  4433.3716     0.0000     0.0032 
 6124.5000  3195.5598   147.0249   123.0976     3.3176     5.1482     3.8610     9.0092     0.0028     8.4658     5.1482     9.0092     0.0031     8.4391     7.7637     9.0092     8.8537     0.1081     0.2038     3.0930     2.5360  4453.9067     0.0000     0.0017 
 6124.7500  3195.6897   147.0280   119.7985     2.8367     6.0384     3.4568     9.4952     0.0040     8.8751     6.0384     9.4952     0.0055     8.7780     8.3740     9.4952     8.8580     0.1046     0.2010     3.0896     2.5417  4482.7153     0.0000     0.0007 
 6125.0000  3195.8198   147.0312   116.4994     2.2631     6.8106     2.8468     9.6574     0.0036     9.0737     6.8106     9.6574     0.0072     8.8499     8.4186     9.6574     8.8624     0.1010     0.1983     3.0863     2.5474  4511.5239     0.0000     0.0003 
 6125.2500  3195.9497   147.0343   112.7255     1.9494     6.9761     2.4441     9.4202     0.0024     8.9255     6.9761     9.4202     0.0079     8.5607     7.8527     9.4202     8.8527     0.1024     0.1979     3.0676     2.5452  4497.4023     0.0000     0.0003 
 6125.5000  3196.0798   147.0374   108.9516     1.9186     6.5386     2.3736     8.9122     0.0018     8.4572     6.5386     8.9122     0.0078     8.0186     6.9689     8.9122     8.8430     0.1038     0.1974     3.0489     2.5429  4483.2808     0.0000     0.0008 
 6125.7500  3196.2097   147.0406   104.4594     1.9547     5.8162     2.4675     8.2837     0.0020     7.7708     5.8162     8.2837     0.0078     7.3366     5.9997     8.2837     8.8356     0.1001     0.1864     3.1225     2.5490  4498.8311     0.0000     0.0027 
 6126.0000  3196.3396   147.0437    99.9671     1.9349     5.0801     2.6000     7.6801     0.0031     7.0150     5.0801     7.6801     0.0085     6.6416     5.0676     7.6801     8.8282     0.0963     0.1753     3.1961     2.5550  4514.3813     0.0008     0.0077 
 6126.2500  3196.4697   147.0469    90.6935     1.9387     4.3611     2.8036     7.1647     0.0050     6.2997     4.3611     7.1647     0.0092     6.0355     4.1171     7.1647     8.8051     0.0714     0.1696     3.4394     2.5951  4463.2559     0.0025     0.0193 
 6126.5000  3196.5999   147.0500    81.4198     2.0709     3.5852     3.0922     6.6774     0.0065     5.6561     3.5852     6.6774     0.0089     5.5109     3.1691     6.6774     8.7820     0.0464     0.1639     3.6827     2.6353  4412.1309     0.0052     0.0405 
 6126.7500  3196.7297   147.0532    71.2121     2.3707     2.7241     3.4776     6.2017     0.0070     5.0948     2.7241     6.2017     0.0078     5.0439     2.3519     6.2017     8.7751     0.0239     0.1488     3.8853     2.6715  4444.9951     0.0075     0.0720 
 6127.0000  3196.8596   147.0563    61.0044     2.8378     1.7972     3.9936     5.7908     0.0070     4.6349     1.7972     5.7908     0.0069     4.6420     1.7964     5.7908     8.7682     0.0014     0.1338     4.0880     2.7078  4477.8589     0.0100     0.1091 
 6127.2500  3196.9897   147.0595    64.0915     3.3632     0.9589     4.5828     5.5417     0.0075     4.3221     0.9589     5.5417     0.0062     4.4118     1.5401     5.5417     8.7719     0.0116     0.1321     3.9737     2.6914  4459.1162     0.0140     0.1419 
 6127.5000  3197.1196   147.0626    67.1786     3.7819     0.3791     5.0809     5.4600     0.0087     4.1610     0.3791     5.4600     0.0052     4.3962     1.4281     5.4600     8.7756     0.0217     0.1305     3.8594     2.6750  4440.3735     0.0209     0.1600 
 6127.7500  3197.2498   147.0658    79.5837     4.0520     0.1056     5.4108     5.5164     0.0099     4.1576     0.1056     5.5164     0.0040     4.5693     1.3669     5.5164     8.7964     0.0474     0.1464     3.5658     2.6336  4442.5859     0.0296     0.1581 
 6128.0000  3197.3796   147.0689    91.9889     4.3262     0.0117     5.6408     5.6525     0.0094     4.3378     0.0117     5.6525     0.0029     4.8361     1.2509     5.6525     8.8172     0.0732     0.1623     3.2721     2.5922  4444.7988     0.0327     0.1389 
 6128.2500  3197.5098   147.0720    98.3623     4.6662     0.0031     5.7878     5.7909     0.0066     4.6693     0.0031     5.7909     0.0023     5.0693     0.9957     5.7909     8.8174     0.0895     0.1739     3.0877     2.5659  4449.3193     0.0275     0.1111 
 6128.5000  3197.6396   147.0752   104.7356     4.9774     0.0139     5.8671     5.8811     0.0039     4.9913     0.0139     5.8811     0.0019     5.2176     0.6727     5.8811     8.8175     0.1057     0.1855     2.9034     2.5397  4453.8403     0.0146     0.0855 
 6128.7500  3197.7698   147.0783   104.3925     5.1208     0.0948     5.8385     5.9333     0.0024     5.2157     0.0948     5.9333     0.0017     5.3172     0.4507     5.9333     8.8149     0.1035     0.1836     2.9367     2.5433  4445.6504     0.0049     0.0681 
 6129.0000  3197.8997   147.0815   104.0493     4.9967     0.3657     5.6286     5.9943     0.0018     5.3624     0.3657     5.9943     0.0013     5.4441     0.5055     5.9943     8.8123     0.1013     0.1818     2.9701     2.5468  4437.4609     0.0000     0.0584 
 6129.2500  3198.0298   147.0846    98.7910     4.4368     1.0104     5.0855     6.0958     0.0020     5.4471     1.0104     6.0958     0.0009     5.6410     0.9536     6.0958     8.8102     0.0776     0.1811     3.2810     2.5852  4455.6211     0.0000     0.0506 
 6129.5000  3198.1597   147.0878    93.5327     3.4840     1.8985     4.2639     6.1624     0.0031     5.3825     1.8985     6.1624     0.0005     5.8066     1.5856     6.1624     8.8081     0.0538     0.1804     3.5918     2.6235  4473.7812     0.0002     0.0402 
 6129.7500  3198.2896   147.0909    82.1195     2.3511     2.7661     3.3226     6.0887     0.0050     5.1172     2.7661     6.0887     0.0003     5.7977     2.1665     6.0887     8.8003     0.0203     0.1689     4.0189     2.6774  4426.1855     0.0005     0.0270 
