~Version Information
 VERS.                  2.0:   CWLS log ASCII Standard -VERSION 2.0
 WRAP.                   NO:   One line per depth step
~Well Information Block
#MNEM.UNIT       Data Type    Information
#---------     -----------    ---------------------------
 STRT.F              5417.0000:
 STOP.F              8969.0000:
 STEP.F                 0.2500:
 NULL.               -999.2500:
~Parameter Information Block
#MNEM.UNIT       Value        Description
#---------     -----------    ---------------------------
~Curve Information Block
#MNEM.UNIT                 API CODE     Curve Description
#---------               -----------    ---------------------------
 DEPT.F                 00 000 000 000:  
 FPRES.PSIA             00 000 000 000:  FORMATION_PRESSURE                     
 FTEMP.DEGF             00 000 000 000:  FORMATION_TEMPERATURE                  
 GR  .api               00 000 000 000:  Gamma API                              
 MBVIT1.PU              00 000 000 000:  T1_IRREDUCIBLE_POROSITY_MAX(CUT-OFF,_SP
 MCBWT1.PU              00 000 000 000:  T1_MICRO-POROSITY                      
 MPHIT1.PU              00 000 000 000:  T1_EFFECTIVE_POROSITY                  
 MSIGT1.PU              00 000 000 000:  T1_TOTAL_POROSITY                      
 T1KCOAT.MD             00 000 000 000:  T1_DIST._COATES_PERMEABILITY           
 T1PIRRMX.PU            00 000 000 000:  T1_DIST._MAXIMUM_IRREDUCIBLE_POROSITY  
 T1PMIC.PU              00 000 000 000:  T1_DIST._MICRO-POROSITY                
 T1PTOT.PU              00 000 000 000:  T1_DIST._TOTAL_POROSITY                
 T2KCOAT.MD             00 000 000 000:  T2_DIST._COATES_PERMEABILITY           
 T2PIRRMX.PU            00 000 000 000:  T2_DIST._MAXIMUM_IRREDUCIBLE_POROSITY  
 T2PMIC.PU              00 000 000 000:  T2_DIST._MICRO-POROSITY                
 T2PTOT.PU              00 000 000 000:  T2_DIST._TOTAL_POROSITY                
 CALI.in                00 000 000 000:  Caliper                                
 DPHI.decp              00 000 000 000:  DensityPorosity                        
 NPHI.decp              00 000 000 000:  Neutron Porosity                       
 PE  .b/e               00 000 000 000:  Pe                                     
 RHOB.g/cc              00 000 000 000:  Density                                
 TENS.lbs               00 000 000 000:  Tension                                
 BPERMF.                00 000 000 000:                                         
 BBINF.                 00 000 000 000:                                         
~A  DEPT        FPRES      FTEMP      GR        MBVIT1     MCBWT1     MPHIT1     MSIGT1     T1KCOAT   T1PIRRMX    T1PMIC     T1PTOT     T2KCOAT   T2PIRRMX    T2PMIC     T2PTOT      CALI       DPHI       NPHI       PE         RHOB       TENS      BPERMF      BBINF  
 5417.0000  2827.7795   138.1270   101.0259     1.0401     2.6512     2.6117     5.2629     0.0139     3.6913     2.6512     5.2629     0.0239     3.3766     2.1049     5.2629     8.8866     0.1150     0.1937     2.9544     2.5249  4291.9224     0.0010     0.0000 
 5417.2500  2827.7795   138.1301   101.7796     1.0401     2.6512     2.6117     5.2629     0.0139     3.6913     2.6512     5.2629     0.0239     3.3766     2.1049     5.2629     8.8944     0.1134     0.1982     2.9364     2.5275  4301.6074     0.0010     0.0000 
 5417.5000  2827.8315   138.1333   102.5333     0.7929     3.4767     2.5591     6.0359     0.0245     4.2696     3.4767     6.0359     0.0358     4.0034     3.0571     6.0359     8.9021     0.1118     0.2027     2.9184     2.5301  4311.2925     0.0009     0.0051 
 5417.7500  2827.9617   138.1364   103.7758     0.8938     4.0927     2.6938     6.7864     0.0279     4.9864     4.0927     6.7864     0.0308     4.9364     3.8010     6.7864     8.9014     0.1108     0.1963     2.9148     2.5318  4318.0366     0.0007     0.0224 
 5418.0000  2828.0916   138.1396   105.0182     4.2705     2.1715     5.0700     7.2415     0.0042     6.4419     2.1715     7.2415     0.0042     6.4419     5.3557     7.2415     8.9006     0.1097     0.1899     2.9112     2.5334  4324.7808     0.0004     0.0529 
 5418.2500  2828.2214   138.1427   107.0818     4.0825     1.8317     4.9011     6.7328     0.0040     5.9141     1.8317     6.7328     0.0042     5.8943     4.5037     6.7328     8.9031     0.1117     0.1964     2.9293     2.5303  4328.8140     0.0001     0.0862 
 5418.5000  2828.3516   138.1458   109.1454     4.3860     1.3959     5.0687     6.4646     0.0024     5.7819     1.3959     6.4646     0.0025     5.7791     3.8924     6.4646     8.9055     0.1136     0.2029     2.9473     2.5271  4332.8472     0.0000     0.1080 
 5418.7500  2828.4814   138.1490   111.4113     4.2794     1.1709     4.9382     6.1091     0.0020     5.4503     1.1709     6.1091     0.0020     5.4520     2.8116     6.1091     8.9018     0.1164     0.2058     2.9612     2.5226  4323.1396     0.0000     0.1162 
 5419.0000  2828.6116   138.1521   113.6773     4.1172     1.0315     4.8081     5.8397     0.0021     5.1487     1.0315     5.8397     0.0021     5.1534     1.7174     5.8397     8.8982     0.1193     0.2086     2.9752     2.5180  4313.4326     0.0000     0.1153 
 5419.2500  2828.7415   138.1553   114.7742     4.1478     1.0126     4.8866     5.8992     0.0025     5.1604     1.0126     5.8992     0.0024     5.1678     1.2821     5.8992     8.8969     0.1189     0.2106     2.9629     2.5187  4307.0132     0.0000     0.1105 
 5419.5000  2828.8716   138.1584   115.8710     4.1492     1.4244     4.9047     6.3291     0.0030     5.5737     1.4244     6.3291     0.0029     5.5768     1.7019     6.3291     8.8957     0.1184     0.2127     2.9507     2.5194  4300.5938     0.0000     0.1007 
 5419.7500  2829.0015   138.1616   115.2725     3.8560     2.4642     4.5845     7.0487     0.0033     6.3202     2.4642     7.0487     0.0034     6.3047     2.7419     7.0487     8.8971     0.1176     0.2074     2.9264     2.5208  4288.9141     0.0000     0.0850 
 5420.0000  2829.1316   138.1647   114.6740     3.2935     3.8631     3.9974     7.8605     0.0037     7.1566     3.8631     7.8605     0.0045     7.0934     3.9192     7.8605     8.8985     0.1167     0.2021     2.9020     2.5221  4277.2349     0.0000     0.0649 
 5420.2500  2829.2615   138.1679   112.0730     2.7851     4.9753     3.5441     8.5194     0.0051     7.7604     4.9753     8.5194     0.0076     7.6137     4.6568     8.5194     8.9039     0.1158     0.1974     2.8809     2.5236  4277.0894     0.0002     0.0436 
 5420.5000  2829.3916   138.1710   109.4719     2.5206     5.5423     3.4115     8.9538     0.0079     8.0630     5.5423     8.9538     0.0142     7.8066     4.9751     8.9538     8.9092     0.1149     0.1928     2.8599     2.5251  4276.9438     0.0006     0.0256 
 5420.7500  2829.5215   138.1741   106.0123     2.3039     5.8679     3.3289     9.1968     0.0113     8.1718     5.8679     9.1968     0.0230     7.8028     5.1860     9.1968     8.9144     0.1118     0.1874     2.8539     2.5301  4282.1699     0.0014     0.0162 
 5421.0000  2829.6516   138.1773   102.5526     2.0092     6.1856     3.1276     9.3133     0.0140     8.1948     6.1856     9.3133     0.0301     7.7607     5.4465     9.3133     8.9197     0.1087     0.1820     2.8479     2.5350  4287.3965     0.0023     0.0195 
 5421.2500  2829.7812   138.1804   100.1566     1.8812     6.2520     3.0694     9.3214     0.0161     8.1332     6.2520     9.3214     0.0309     7.7542     5.4649     9.3214     8.9239     0.1066     0.1743     2.8398     2.5385  4279.8452     0.0039     0.0359 
 5421.5000  2829.9114   138.1836    97.7606     2.2502     5.6985     3.5252     9.2236     0.0187     7.9486     5.6985     9.2236     0.0265     7.7442     4.8917     9.2236     8.9280     0.1044     0.1666     2.8317     2.5420  4272.2939     0.0064     0.0601 
 5421.7500  2830.0415   138.1867    96.6498     3.0881     4.5236     4.4765     9.0002     0.0218     7.6118     4.5236     9.0002     0.0206     7.6466     3.7878     9.0002     8.9291     0.1034     0.1625     2.8099     2.5436  4277.4814     0.0106     0.0826 
 5422.0000  2830.1716   138.1899    95.5390     4.1904     3.0443     5.6123     8.6566     0.0217     7.2347     3.0443     8.6566     0.0144     7.4624     2.4931     8.6566     8.9303     0.1024     0.1583     2.7882     2.5451  4282.6689     0.0130     0.0951 
 5422.2500  2830.3013   138.1930    92.8754     5.2538     1.7311     6.4979     8.2289     0.0148     6.9848     1.7311     8.2289     0.0089     7.2307     1.4501     8.2289     8.9306     0.0991     0.1592     2.7804     2.5505  4297.9780     0.0126     0.0942 
 5422.5000  2830.4314   138.1962    90.2117     5.9956     0.8837     6.9141     7.7979     0.0069     6.8793     0.8837     7.7979     0.0047     7.0201     0.8150     7.7979     8.9310     0.0957     0.1602     2.7726     2.5559  4313.2871     0.0072     0.0823 
 5422.7500  2830.5615   138.1993    84.6584     6.1515     0.6212     6.7777     7.3989     0.0027     6.7728     0.6212     7.3989     0.0025     6.7857     0.5638     7.3989     8.9148     0.0850     0.1566     2.8094     2.5732  4327.8896     0.0028     0.0650 
 5423.0000  2830.6914   138.2025    79.1052     5.6632     0.8798     6.1428     7.0226     0.0013     6.5430     0.8798     7.0226     0.0017     6.4778     0.5562     7.0226     8.8985     0.0743     0.1530     2.8463     2.5904  4342.4927     0.0000     0.0484 
 5423.2500  2830.8213   138.2056    72.9556     4.8453     1.3112     5.3154     6.6265     0.0011     6.1564     1.3112     6.6265     0.0016     6.0730     0.5678     6.6265     8.8813     0.0608     0.1467     2.9395     2.6121  4339.2266     0.0000     0.0371 
 5423.5000  2830.9514   138.2087    66.8060     4.3440     1.4574     4.8041     6.2615     0.0010     5.8015     1.4574     6.2615     0.0013     5.7350     0.4600     6.2615     8.8641     0.0472     0.1403     3.0328     2.6339  4335.9609     0.0000     0.0311 
 5423.7500  2831.0815   138.2119    67.0030     4.4392     1.2346     4.8542     6.0887     0.0007     5.6738     1.2346     6.0887     0.0009     5.6341     0.2740     6.0887     8.8530     0.0477     0.1409     3.0875     2.6332  4322.9824     0.0000     0.0278 
 5424.0000  2831.2114   138.2150    67.2000     4.9839     0.8650     5.3562     6.2212     0.0006     5.8489     0.8650     6.2212     0.0007     5.8314     0.1096     6.2212     8.8418     0.0481     0.1414     3.1423     2.6325  4310.0039     0.0000     0.0237 
 5424.2500  2831.3413   138.2182    73.8624     5.6278     0.6474     5.9932     6.6406     0.0007     6.2752     0.6474     6.6406     0.0008     6.2374     0.0637     6.6406     8.8683     0.0636     0.1530     3.0872     2.6075  4284.7578     0.0000     0.0182 
 5424.5000  2831.4714   138.2213    80.5248     6.0275     0.6961     6.4271     7.1231     0.0009     6.7236     0.6961     7.1231     0.0018     6.5889     0.1655     7.1231     8.8948     0.0792     0.1646     3.0322     2.5824  4259.5122     0.0000     0.0126 
