~Version Information
 VERS.                  2.0:   CWLS log ASCII Standard -VERSION 2.0
 WRAP.                   NO:   One line per depth step
~Well Information Block
#MNEM.UNIT       Data Type    Information
#---------     -----------    ---------------------------
 STRT.F              5417.0000:
 STOP.F              8969.0000:
 STEP.F                 0.2500:
 NULL.               -999.2500:
~Parameter Information Block
#MNEM.UNIT       Value        Description
#---------     -----------    ---------------------------
~Curve Information Block
#MNEM.UNIT                 API CODE     Curve Description
#---------               -----------    ---------------------------
 DEPT.F                 00 000 000 000:  
 FPRES.PSIA             00 000 000 000:  FORMATION_PRESSURE                     
 FTEMP.DEGF             00 000 000 000:  FORMATION_TEMPERATURE                  
 GR  .api               00 000 000 000:  Gamma API                              
 MBVIT1.PU              00 000 000 000:  T1_IRREDUCIBLE_POROSITY_MAX(CUT-OFF,_SP
 MCBWT1.PU              00 000 000 000:  T1_MICRO-POROSITY                      
 MPHIT1.PU              00 000 000 000:  T1_EFFECTIVE_POROSITY                  
 MSIGT1.PU              00 000 000 000:  T1_TOTAL_POROSITY                      
 T1KCOAT.MD             00 000 000 000:  T1_DIST._COATES_PERMEABILITY           
 T1PIRRMX.PU            00 000 000 000:  T1_DIST._MAXIMUM_IRREDUCIBLE_POROSITY  
 T1PMIC.PU              00 000 000 000:  T1_DIST._MICRO-POROSITY                
 T1PTOT.PU              00 000 000 000:  T1_DIST._TOTAL_POROSITY                
 T2KCOAT.MD             00 000 000 000:  T2_DIST._COATES_PERMEABILITY           
 T2PIRRMX.PU            00 000 000 000:  T2_DIST._MAXIMUM_IRREDUCIBLE_POROSITY  
 T2PMIC.PU              00 000 000 000:  T2_DIST._MICRO-POROSITY                
 T2PTOT.PU              00 000 000 000:  T2_DIST._TOTAL_POROSITY                
 CALI.in                00 000 000 000:  Caliper                                
 DPHI.decp              00 000 000 000:  DensityPorosity                        
 NPHI.decp              00 000 000 000:  Neutron Porosity                       
 PE  .b/e               00 000 000 000:  Pe                                     
 RHOB.g/cc              00 000 000 000:  Density                                
 TENS.lbs               00 000 000 000:  Tension                                
 BPERMF.                00 000 000 000:                                         
 BBINF.                 00 000 000 000:                                         
~A  DEPT        FPRES      FTEMP      GR        MBVIT1     MCBWT1     MPHIT1     MSIGT1     T1KCOAT   T1PIRRMX    T1PMIC     T1PTOT     T2KCOAT   T2PIRRMX    T2PMIC     T2PTOT      CALI       DPHI       NPHI       PE         RHOB       TENS      BPERMF      BBINF  
# ...
 8726.2500  4550.3877   179.7458   113.9160     0.2010     6.5747     0.9281     7.5027     0.0036     6.7757     6.5747     7.5027     0.0036     6.7757     6.7725     7.5027     8.7880     0.0353     0.1565     3.2754     2.6532  5217.2422     0.0000     0.8167 
 8726.5000  4550.5176   179.7490   114.7950     0.1472     7.4833     0.8378     8.3212     0.0039     7.6306     7.4833     8.3212     0.0039     7.6306     7.6298     8.3212     8.7882     0.0325     0.1513     3.2752     2.6577  5229.3467     0.0000     0.7148 
 8726.7500  4550.6479   179.7521   114.1382     0.1321     8.0846     0.7838     8.8684     0.0039     8.2167     8.0846     8.8684     0.0039     8.2167     8.2163     8.8684     8.7876     0.0316     0.1529     3.2657     2.6590  5231.8115     0.0000     0.5538 
 8727.0000  4550.7778   179.7553   113.4814     0.1327     8.3461     0.7490     9.0951     0.0036     8.4788     8.3461     9.0951     0.0036     8.4796     8.4771     9.0951     8.7870     0.0308     0.1545     3.2563     2.6604  5234.2769     0.0000     0.3672 
 8727.2500  4550.9077   179.7584   113.0997     0.1391     8.1567     0.7519     8.9085     0.0034     8.2957     8.1567     8.9085     0.0034     8.3015     8.2914     8.9085     8.7917     0.0316     0.1554     3.2461     2.6592  5224.0371     0.0000     0.2008 
 8727.5000  4551.0376   179.7616   112.7180     0.1574     7.5264     0.8238     8.3502     0.0036     7.6838     7.5264     8.3502     0.0034     7.7071     7.6761     8.3502     8.7964     0.0324     0.1563     3.2359     2.6579  5213.7974     0.0002     0.0869 
 8727.7500  4551.1680   179.7647   114.1323     0.1776     6.4302     0.9937     7.4239     0.0046     6.6078     6.4302     7.4239     0.0039     6.6713     6.5987     7.4239     8.7934     0.0320     0.1554     3.2255     2.6585  5246.0176     0.0009     0.0310 
 8728.0000  4551.2974   179.7678   115.5466     0.1775     4.9464     1.2436     6.1900     0.0064     5.1239     4.9464     6.1900     0.0047     5.2490     5.1159     6.1900     8.7905     0.0316     0.1546     3.2152     2.6591  5278.2378     0.0030     0.0190 
 8728.2500  4551.4277   179.7710   117.1396     0.1389     3.2805     1.4963     4.7768     0.0083     3.4194     3.2805     4.7768     0.0054     3.6166     3.4096     4.7768     8.7920     0.0329     0.1550     3.2215     2.6569  5251.4678     0.0076     0.0388 
 8728.5000  4551.5576   179.7741   118.7327     0.0884     1.8280     1.6531     3.4811     0.0102     1.9164     1.8280     3.4811     0.0053     2.1775     1.8839     3.4811     8.7935     0.0343     0.1555     3.2278     2.6548  5224.6982     0.0156     0.0838 
 8728.7500  4551.6880   179.7773   117.5368     0.0620     0.8610     1.6551     2.5160     0.0126     0.9230     0.8610     2.5160     0.0045     1.2288     0.8153     2.5160     8.7940     0.0364     0.1571     3.2520     2.6514  5248.2578     0.0260     0.1403 
 8729.0000  4551.8174   179.7804   116.3410     0.0879     0.4503     1.5229     1.9732     0.0108     0.5382     0.4503     1.9732     0.0030     0.8217     0.2702     1.9732     8.7944     0.0385     0.1587     3.2762     2.6480  5271.8179     0.0356     0.1819 
 8729.2500  4551.9478   179.7836   114.9680     0.2085     0.4521     1.4038     1.8559     0.0041     0.6607     0.4521     1.8559     0.0012     0.9399     0.1279     1.8559     8.7943     0.0388     0.1612     3.2993     2.6476  5240.9536     0.0369     0.1839 
 8729.5000  4552.0776   179.7867   113.5949     0.4343     0.5215     1.4608     1.9823     0.0018     0.9559     0.5215     1.9823     0.0007     1.1977     0.0933     1.9823     8.7942     0.0390     0.1637     3.3224     2.6472  5210.0894     0.0293     0.1461 
 8729.7500  4552.2080   179.7898   114.1773     0.7464     0.6076     1.6847     2.2923     0.0013     1.3540     0.6076     2.2923     0.0007     1.5375     0.1224     2.2923     8.8048     0.0388     0.1641     3.3091     2.6476  5238.7075     0.0209     0.0942 
 8730.0000  4552.3374   179.7930   114.7597     1.0296     0.8222     1.9440     2.7662     0.0014     1.8518     0.8222     2.7662     0.0008     2.0278     0.2779     2.7662     8.8153     0.0385     0.1646     3.2957     2.6480  5267.3257     0.0248     0.0563 
 8730.2500  4552.4673   179.7961   114.6713     1.0830     1.2669     2.1173     3.3842     0.0026     2.3499     1.2669     3.3842     0.0009     2.6941     0.6702     3.3842     8.8064     0.0387     0.1615     3.2522     2.6477  5251.1816     0.0427     0.0447 
 8730.5000  4552.5977   179.7993   114.5830     0.9096     1.7940     2.1709     3.9649     0.0055     2.7035     1.7940     3.9649     0.0009     3.3246     1.2320     3.9649     8.7975     0.0389     0.1584     3.2086     2.6474  5235.0381     0.0612     0.0559 
 8730.7500  4552.7280   179.8024   114.1815     0.6287     2.2363     2.0916     4.3279     0.0092     2.8650     2.2363     4.3279     0.0010     3.7149     1.8159     4.3279     8.7992     0.0393     0.1603     3.2070     2.6469  5215.3320     0.0694     0.0810 
 8731.0000  4552.8574   179.8056   113.7801     0.3668     2.5021     1.8729     4.3751     0.0101     2.8689     2.5021     4.3751     0.0009     3.7703     2.2515     4.3751     8.8010     0.0396     0.1623     3.2053     2.6463  5195.6265     0.0625     0.1089 
 8731.2500  4552.9873   179.8087   113.9386     0.1916     2.4969     1.5630     4.0600     0.0072     2.6885     2.4969     4.0600     0.0010     3.4189     2.3557     4.0600     8.8004     0.0405     0.1610     3.2371     2.6449  5222.3457     0.0459     0.1266 
 8731.5000  4553.1177   179.8119   114.0970     0.0853     2.2496     1.2539     3.5035     0.0039     2.3349     2.2496     3.5035     0.0009     2.8091     2.1503     3.5035     8.7999     0.0414     0.1597     3.2688     2.6434  5249.0649     0.0265     0.1305 
 8731.7500  4553.2480   179.8150   114.7421     0.0341     1.8453     0.9906     2.8360     0.0017     1.8795     1.8453     2.8360     0.0008     2.1150     1.7370     2.8360     8.7996     0.0426     0.1596     3.2759     2.6414  5212.7891     0.0106     0.1387 
 8732.0000  4553.3774   179.8181   115.3871     0.0223     1.5004     0.8258     2.3262     0.0008     1.5228     1.5004     2.3262     0.0006     1.6039     1.3661     2.3262     8.7993     0.0439     0.1594     3.2829     2.6393  5176.5132     0.0026     0.1797 
 8732.2500  4553.5073   179.8213   116.1981     0.1048     1.4992     0.8639     2.3631     0.0007     1.6039     1.4992     2.3631     0.0006     1.6247     1.4527     2.3631     8.7785     0.0442     0.1636     3.2708     2.6389  5226.9834     0.0000     0.2643 
 8732.5000  4553.6377   179.8244   117.0090     0.3606     1.7537     1.1646     2.9183     0.0011     2.1143     1.7537     2.9183     0.0011     2.1174     1.9967     2.9183     8.7576     0.0445     0.1678     3.2587     2.6384  5277.4531     0.0033     0.3629 
 8732.7500  4553.7681   179.8276   115.2778     0.8406     2.0634     1.7396     3.8030     0.0020     2.9041     2.0634     3.8030     0.0020     2.9042     2.8011     3.8030     8.3225     0.0439     0.1750     3.2547     2.6393  5249.4116     0.0106     0.4274 
 8733.0000  4553.8975   179.8307   113.5467     1.3233     2.4837     2.3553     4.8390     0.0040     3.8070     2.4837     4.8390     0.0040     3.8058     3.6467     4.8390     7.8875     0.0434     0.1822     3.2506     2.6402  5221.3701     0.0220     0.4278 
 8733.2500  4554.0273   179.8339   111.7395     1.4060     3.3267     2.5996     5.9263     0.0080     4.7327     3.3267     5.9263     0.0081     4.7280     4.3991     5.9263     7.9601     0.0430     0.1816     3.2578     2.6407  5231.8789     0.0299     0.3748 
 8733.5000  4554.1577   179.8370   109.9323     1.1386     4.4709     2.4938     6.9648     0.0139     5.6096     4.4709     6.9648     0.0142     5.5980     5.0351     6.9648     8.0326     0.0427     0.1810     3.2649     2.6412  5242.3882     0.0317     0.3044 
 8733.7500  4554.2881   179.8401   111.3439     0.8290     5.5150     2.3154     7.8304     0.0207     6.3440     5.5150     7.8304     0.0213     6.3272     5.5071     7.8304     8.0348     0.0443     0.1779     3.2642     2.6387  5247.0430     0.0269     0.2496 
