~Version Information
 VERS.                  2.0:   CWLS log ASCII Standard -VERSION 2.0
 WRAP.                   NO:   One line per depth step
~Well Information Block
#MNEM.UNIT       Data Type    Information
#---------     -----------    ---------------------------
 STRT.F              5417.0000:
 STOP.F              8969.0000:
 STEP.F                 0.2500:
 NULL.               -999.2500:
~Parameter Information Block
#MNEM.UNIT       Value        Description
#---------     -----------    ---------------------------
~Curve Information Block
#MNEM.UNIT                 API CODE     Curve Description
#---------               -----------    ---------------------------
 DEPT.F                 00 000 000 000:  
 FPRES.PSIA             00 000 000 000:  FORMATION_PRESSURE                     
 FTEMP.DEGF             00 000 000 000:  FORMATION_TEMPERATURE                  
 GR  .api               00 000 000 000:  Gamma API                              
 MBVIT1.PU              00 000 000 000:  T1_IRREDUCIBLE_POROSITY_MAX(CUT-OFF,_SP
 MCBWT1.PU              00 000 000 000:  T1_MICRO-POROSITY                      
 MPHIT1.PU              00 000 000 000:  T1_EFFECTIVE_POROSITY                  
 MSIGT1.PU              00 000 000 000:  T1_TOTAL_POROSITY                      
 T1KCOAT.MD             00 000 000 000:  T1_DIST._COATES_PERMEABILITY           
 T1PIRRMX.PU            00 000 000 000:  T1_DIST._MAXIMUM_IRREDUCIBLE_POROSITY  
 T1PMIC.PU              00 000 000 000:  T1_DIST._MICRO-POROSITY                
 T1PTOT.PU              00 000 000 000:  T1_DIST._TOTAL_POROSITY                
 T2KCOAT.MD             00 000 000 000:  T2_DIST._COATES_PERMEABILITY           
 T2PIRRMX.PU            00 000 000 000:  T2_DIST._MAXIMUM_IRREDUCIBLE_POROSITY  
 T2PMIC.PU              00 000 000 000:  T2_DIST._MICRO-POROSITY                
 T2PTOT.PU              00 000 000 000:  T2_DIST._TOTAL_POROSITY                
 CALI.in                00 000 000 000:  Caliper                                
 DPHI.decp              00 000 000 000:  DensityPorosity                        
 NPHI.decp              00 000 000 000:  Neutron Porosity                       
 PE  .b/e               00 000 000 000:  Pe                                     
 RHOB.g/cc              00 000 000 000:  Density                                
 TENS.lbs               00 000 000 000:  Tension                                
 BPERMF.                00 000 000 000:                                         
 BBINF.                 00 000 000 000:                                         
~A  DEPT        FPRES      FTEMP      GR        MBVIT1     MCBWT1     MPHIT1     MSIGT1     T1KCOAT   T1PIRRMX    T1PMIC     T1PTOT     T2KCOAT   T2PIRRMX    T2PMIC     T2PTOT      CALI       DPHI       NPHI       PE         RHOB       TENS      BPERMF      BBINF  
# ...
 6595.0000  3440.3135   152.9421    74.4052     0.1003     3.0887     2.5113     5.6000     0.0562     3.1891     3.0887     5.6000     0.0161     3.9874     3.0742     5.6000     8.8442     0.0679     0.1383     3.5781     2.6006  4645.8936     0.0121     0.0970 
 6595.2500  3440.4434   152.9453    73.1975     0.1528     2.9253     2.8736     5.7988     0.0894     3.0781     2.9253     5.7988     0.0109     4.4283     2.8874     5.7988     8.8437     0.0706     0.1459     3.5954     2.5962  4689.9604     0.0133     0.1305 
 6595.5000  3440.5732   152.9484    71.9899     0.2687     2.7343     3.2875     6.0218     0.1338     3.0030     2.7343     6.0218     0.0075     4.8626     2.6522     6.0218     8.8432     0.0734     0.1535     3.6128     2.5918  4734.0273     0.0208     0.1529 
 6595.7500  3440.7034   152.9516    73.2136     0.4606     2.6644     3.6027     6.2671     0.1560     3.1250     2.6644     6.2671     0.0059     5.2441     2.5220     6.2671     8.8389     0.0799     0.1535     3.6788     2.5813  4701.8633     0.0306     0.1557 
 6596.0000  3440.8333   152.9547    74.4373     0.6912     2.8972     3.6986     6.5958     0.1329     3.5884     2.8972     6.5958     0.0063     5.5789     2.7206     6.5958     8.8347     0.0864     0.1535     3.7448     2.5708  4669.6997     0.0372     0.1399 
 6596.2500  3440.9634   152.9578    80.0532     0.8634     3.5469     3.5517     7.0986     0.0952     4.4103     3.5469     7.0986     0.0120     5.8433     3.4793     7.0986     8.8387     0.0953     0.1608     3.7099     2.5565  4700.2168     0.0365     0.1118 
 6596.5000  3441.0933   152.9610    85.6691     0.9346     4.4457     3.2634     7.7090     0.0668     5.3803     4.4457     7.7090     0.0241     6.1278     4.5788     7.7090     8.8428     0.1042     0.1681     3.6749     2.5422  4730.7344     0.0285     0.0788 
 6596.7500  3441.2231   152.9641    88.9216     0.9819     5.2867     2.9705     8.2572     0.0470     6.2686     5.2867     8.2572     0.0377     6.4304     5.6295     8.2572     8.8404     0.1091     0.1810     3.6209     2.5343  4690.0498     0.0177     0.0476 
 6597.0000  3441.3533   152.9673    92.1741     1.1254     5.6458     2.8651     8.5108     0.0346     6.7711     5.6458     8.5108     0.0455     6.5751     6.1961     8.5108     8.8379     0.1140     0.1939     3.5670     2.5265  4649.3657     0.0089     0.0237 
 6597.2500  3441.4834   152.9704    93.5648     1.3577     5.0780     3.0739     8.1519     0.0314     6.4357     5.0780     8.1519     0.0474     6.1404     5.8371     8.1519     8.8366     0.1172     0.1970     3.5008     2.5213  4645.7417     0.0042     0.0096 
 6597.5000  3441.6133   152.9736    94.9556     1.5018     3.9047     3.3882     7.2929     0.0345     5.4065     3.9047     7.2929     0.0477     5.1702     4.7090     7.2929     8.8353     0.1204     0.2001     3.4347     2.5162  4642.1177     0.0025     0.0036 
 6597.7500  3441.7432   152.9767    96.7842     1.4366     2.6406     3.5813     6.2220     0.0417     4.0772     2.6406     6.2220     0.0439     4.0385     3.1951     6.2220     8.8307     0.1264     0.2008     3.3021     2.5066  4671.9795     0.0022     0.0021 
 6598.0000  3441.8733   152.9799    98.6128     1.2262     1.6948     3.6242     5.3191     0.0540     2.9210     1.6948     5.3191     0.0388     3.1354     1.8271     5.3191     8.8262     0.1323     0.2015     3.1694     2.4969  4701.8418     0.0022     0.0027 
 6598.2500  3442.0032   152.9830    98.7231     1.1017     1.2796     3.5865     4.8662     0.0611     2.3814     1.2796     4.8662     0.0273     2.8772     1.0774     4.8662     8.8245     0.1344     0.2000     3.1078     2.4936  4681.0820     0.0024     0.0063 
 6598.5000  3442.1333   152.9861    98.8333     1.1944     1.2856     3.4998     4.7854     0.0465     2.4800     1.2856     4.7854     0.0143     3.1613     0.9177     4.7854     8.8229     0.1365     0.1984     3.0462     2.4902  4660.3228     0.0031     0.0167 
 6598.7500  3442.2632   152.9893    96.7675     1.4599     1.7872     3.3207     5.1079     0.0234     3.2470     1.7872     5.1079     0.0072     3.8628     1.3763     5.1079     8.8295     0.1294     0.1941     3.1403     2.5017  4694.0605     0.0035     0.0369 
 6599.0000  3442.3933   152.9924    94.7018     1.8107     2.7295     3.1282     5.8577     0.0099     4.5401     2.7295     5.8577     0.0044     4.9126     2.3984     5.8577     8.8361     0.1222     0.1898     3.2344     2.5133  4727.7988     0.0034     0.0630 
 6599.2500  3442.5232   152.9956    92.1677     2.3383     3.6899     3.2107     6.9005     0.0048     6.0282     3.6899     6.9005     0.0032     6.1681     3.6930     6.9005     8.8333     0.1150     0.1786     3.3588     2.5248  4703.4658     0.0020     0.0835 
 6599.5000  3442.6533   152.9987    89.6336     3.2585     4.0043     3.8610     7.8654     0.0026     7.2628     4.0043     7.8654     0.0027     7.2584     4.7715     7.8654     8.8304     0.1078     0.1673     3.4832     2.5364  4679.1328     0.0008     0.0880 
 6599.7500  3442.7832   153.0019    90.1561     4.5918     3.4604     5.0794     8.5398     0.0019     8.0521     3.4604     8.5398     0.0030     7.9446     5.4332     8.5398     8.8359     0.1077     0.1632     3.5375     2.5366  4696.9453     0.0000     0.0777 
 6600.0000  3442.9133   153.0050    90.6785     5.9146     2.4432     6.4101     8.8533     0.0022     8.3578     2.4432     8.8533     0.0045     8.1529     5.7096     8.8533     8.8414     0.1076     0.1591     3.5917     2.5368  4714.7578     0.0000     0.0657 
 6600.2500  3443.0432   153.0081    92.6458     6.3710     1.7849     6.9963     8.7812     0.0035     8.1559     1.7849     8.7812     0.0078     7.8818     5.7224     8.7812     8.8389     0.1067     0.1640     3.6011     2.5382  4724.8076     0.0000     0.0654 
 6600.5000  3443.1731   153.0113    94.6130     5.8353     1.8596     6.6267     8.4863     0.0055     7.6948     1.8596     8.4863     0.0111     7.4054     5.6304     8.4863     8.8363     0.1058     0.1689     3.6105     2.5397  4734.8569     0.0000     0.0789 
 6600.7500  3443.3032   153.0144    94.1285     4.6540     2.5112     5.5473     8.0585     0.0066     7.1652     2.5112     8.0585     0.0117     6.9069     5.4476     8.0585     8.8354     0.1019     0.1726     3.6153     2.5459  4702.1943     0.0000     0.0963 
 6601.0000  3443.4331   153.0176    93.6441     3.3762     3.3325     4.2204     7.5528     0.0052     6.7087     3.3325     7.5528     0.0081     6.5238     5.1531     7.5528     8.8344     0.0980     0.1763     3.6201     2.5522  4669.5312     0.0000     0.1047 
 6601.2500  3443.5632   153.0207    93.8030     2.4844     3.9376     3.1939     7.1316     0.0032     6.4221     3.9376     7.1316     0.0038     6.3695     4.8623     7.1316     8.8341     0.1012     0.1793     3.5967     2.5470  4708.6914     0.0000     0.0982 
 6601.5000  3443.6931   153.0239    93.9620     1.9891     4.3556     2.5940     6.9496     0.0021     6.3446     4.3556     6.9496     0.0016     6.4172     4.7523     6.9496     8.8337     0.1044     0.1823     3.5732     2.5419  4747.8521     0.0000     0.0838 
 6601.7500  3443.8232   153.0270    97.0314     1.7628     4.6975     2.3499     7.0474     0.0020     6.4603     4.6975     7.0474     0.0013     6.5789     4.8702     7.0474     8.8323     0.1126     0.1833     3.5259     2.5288  4713.1899     0.0000     0.0778 
 6602.0000  3443.9531   153.0302   100.1009     1.6546     4.9929     2.3300     7.3228     0.0030     6.6474     4.9929     7.3228     0.0023     6.7219     5.0905     7.3228     8.8308     0.1207     0.1842     3.4786     2.5157  4678.5278     0.0016     0.0951 
 6602.2500  3444.0833   153.0333    99.4756     1.6327     5.0751     2.5222     7.5974     0.0060     6.7079     5.0751     7.5974     0.0063     6.6938     5.1578     7.5974     8.8230     0.1125     0.1792     3.5374     2.5289  4719.0039     0.0055     0.1383 
 6602.5000  3444.2131   153.0364    98.8504     1.7688     4.7896     2.8986     7.6882     0.0105     6.5584     4.7896     7.6882     0.0130     6.4542     4.9124     7.6882     8.8151     0.1043     0.1742     3.5962     2.5420  4759.4805     0.0116     0.1950 
