~Version Information
 VERS.                  2.0:   CWLS log ASCII Standard -VERSION 2.0
 WRAP.                   NO:   One line per depth step
~Well Information Block
#MNEM.UNIT       Data Type    Information
#---------     -----------    ---------------------------
 STRT.F              5417.0000:
 STOP.F              8969.0000:
 STEP.F                 0.2500:
 NULL.               -999.2500:
~Parameter Information Block
#MNEM.UNIT       Value        Description
#---------     -----------    ---------------------------
~Curve Information Block
#MNEM.UNIT                 API CODE     Curve Description
#---------               -----------    ---------------------------
 DEPT.F                 00 000 000 000:  
 FPRES.PSIA             00 000 000 000:  FORMATION_PRESSURE                     
 FTEMP.DEGF             00 000 000 000:  FORMATION_TEMPERATURE                  
 GR  .api               00 000 000 000:  Gamma API                              
 MBVIT1.PU              00 000 000 000:  T1_IRREDUCIBLE_POROSITY_MAX(CUT-OFF,_SP
 MCBWT1.PU              00 000 000 000:  T1_MICRO-POROSITY                      
 MPHIT1.PU              00 000 000 000:  T1_EFFECTIVE_POROSITY                  
 MSIGT1.PU              00 000 000 000:  T1_TOTAL_POROSITY                      
 T1KCOAT.MD             00 000 000 000:  T1_DIST._COATES_PERMEABILITY           
 T1PIRRMX.PU            00 000 000 000:  T1_DIST._MAXIMUM_IRREDUCIBLE_POROSITY  
 T1PMIC.PU              00 000 000 000:  T1_DIST._MICRO-POROSITY                
 T1PTOT.PU              00 000 000 000:  T1_DIST._TOTAL_POROSITY                
 T2KCOAT.MD             00 000 000 000:  T2_DIST._COATES_PERMEABILITY           
 T2PIRRMX.PU            00 000 000 000:  T2_DIST._MAXIMUM_IRREDUCIBLE_POROSITY  
 T2PMIC.PU              00 000 000 000:  T2_DIST._MICRO-POROSITY                
 T2PTOT.PU              00 000 000 000:  T2_DIST._TOTAL_POROSITY                
 CALI.in                00 000 000 000:  Caliper                                
 DPHI.decp              00 000 000 000:  DensityPorosity                        
 NPHI.decp              00 000 000 000:  Neutron Porosity                       
 PE  .b/e               00 000 000 000:  Pe                                     
 RHOB.g/cc              00 000 000 000:  Density                                
 TENS.lbs               00 000 000 000:  Tension                                
 BPERMF.                00 000 000 000:                                         
 BBINF.                 00 000 000 000:                                         
~A  DEPT        FPRES      FTEMP      GR        MBVIT1     MCBWT1     MPHIT1     MSIGT1     T1KCOAT   T1PIRRMX    T1PMIC     T1PTOT     T2KCOAT   T2PIRRMX    T2PMIC     T2PTOT      CALI       DPHI       NPHI       PE         RHOB       TENS      BPERMF      BBINF  
# ...
 8486.0000  4425.2554   176.7243   104.0129     0.8985     4.3393     1.0915     5.4307     0.0001     5.2377     4.3393     5.4307     0.0001     5.2377     5.0325     5.4307     8.8589     0.0521     0.1753     2.9533     2.6261  5182.1719     0.0000     0.4079 
 8486.2500  4425.3853   176.7275   105.5760     0.7761     3.4073     1.0269     4.4342     0.0001     4.1835     3.4073     4.4342     0.0001     4.1835     4.0649     4.4342     8.8580     0.0514     0.1794     3.0138     2.6273  5205.5410     0.0000     0.5349 
 8486.5000  4425.5146   176.7306   107.1391     0.9533     2.0811     1.3113     3.3924     0.0002     3.0344     2.0811     3.3924     0.0002     3.0344     2.8974     3.3924     8.8571     0.0507     0.1835     3.0744     2.6284  5228.9102     0.0000     0.6270 
 8486.7500  4425.6450   176.7337   108.0352     1.0893     0.9184     1.5999     2.5184     0.0003     2.0077     0.9184     2.5184     0.0003     2.0077     1.7921     2.5184     8.8583     0.0505     0.1795     3.1081     2.6288  5199.5195     0.0000     0.6640 
 8487.0000  4425.7754   176.7369   108.9313     1.0026     0.2425     1.6847     1.9272     0.0004     1.2451     0.2425     1.9272     0.0004     1.2451     0.9187     1.9272     8.8596     0.0503     0.1754     3.1418     2.6291  5170.1284     0.0000     0.6500 
 8487.2500  4425.9053   176.7400   109.9527     0.8139     0.0462     1.5997     1.6459     0.0006     0.8601     0.0462     1.6459     0.0006     0.8597     0.4012     1.6459     8.8591     0.0498     0.1758     3.1409     2.6298  5192.4111     0.0000     0.5948 
 8487.5000  4426.0347   176.7432   110.9740     0.7858     0.0032     1.5431     1.5463     0.0005     0.7889     0.0032     1.5463     0.0005     0.7847     0.1632     1.5463     8.8587     0.0493     0.1762     3.1399     2.6306  5214.6934     0.0000     0.4987 
 8487.7500  4426.1650   176.7463   112.0056     0.9512     0.0257     1.5642     1.5899     0.0003     0.9769     0.0257     1.5899     0.0003     0.9664     0.1382     1.5899     8.8589     0.0499     0.1773     3.1193     2.6297  5182.7256     0.0000     0.3690 
 8488.0000  4426.2954   176.7495   113.0371     1.1975     0.1358     1.6558     1.7916     0.0001     1.3333     0.1358     1.7916     0.0001     1.3201     0.2469     1.7916     8.8591     0.0505     0.1785     3.0988     2.6287  5150.7583     0.0000     0.2313 
 8488.2500  4426.4253   176.7526   112.1186     1.2926     0.5328     1.7084     2.2412     0.0001     1.8254     0.5328     2.2412     0.0001     1.8444     0.5472     2.2412     8.8659     0.0500     0.1810     3.0749     2.6295  5166.5488     0.0000     0.1185 
 8488.5000  4426.5547   176.7558   111.2001     1.1505     1.3395     1.5973     2.9368     0.0002     2.4900     1.3395     2.9368     0.0002     2.5650     1.1465     2.9368     8.8726     0.0494     0.1834     3.0509     2.6304  5182.3389     0.0000     0.0485 
 8488.7500  4426.6851   176.7589   109.8411     0.8451     2.5403     1.3018     3.8421     0.0004     3.3854     2.5403     3.8421     0.0002     3.4945     2.1367     3.8421     8.8755     0.0469     0.1828     3.0450     2.6346  5188.0244     0.0000     0.0206 
 8489.0000  4426.8154   176.7621   108.4821     0.5331     3.9126     0.9344     4.8469     0.0004     4.4457     3.9126     4.8469     0.0003     4.5384     3.4191     4.8469     8.8783     0.0443     0.1822     3.0391     2.6387  5193.7104     0.0000     0.0285 
 8489.2500  4426.9453   176.7652   109.2060     0.3679     5.0696     0.6911     5.7607     0.0004     5.4376     5.0696     5.7607     0.0003     5.4816     4.7040     5.7607     8.8736     0.0442     0.1828     3.0416     2.6388  5174.6089     0.0000     0.0780 
 8489.5000  4427.0747   176.7683   109.9299     0.3920     5.7743     0.6673     6.4417     0.0003     6.1664     5.7743     6.4417     0.0003     6.1799     5.7009     6.4417     8.8689     0.0441     0.1833     3.0441     2.6390  5155.5073     0.0000     0.1765 
 8489.7500  4427.2051   176.7715   110.6824     0.6094     5.9457     0.8776     6.8232     0.0004     6.5551     5.9457     6.8232     0.0004     6.5566     6.2713     6.8232     8.8684     0.0465     0.1810     3.0404     2.6350  5195.3174     0.0000     0.3063 
 8490.0000  4427.3350   176.7746   111.4350     0.9807     5.6313     1.2784     6.9097     0.0005     6.6120     5.6313     6.9097     0.0005     6.6120     6.3931     6.9097     8.8678     0.0490     0.1787     3.0367     2.6311  5235.1279     0.0000     0.4246 
 8490.2500  4427.4653   176.7778   110.7907     1.2193     5.1441     1.5807     6.7248     0.0007     6.3634     5.1441     6.7248     0.0007     6.3634     6.0813     6.7248     8.8668     0.0491     0.1849     3.0209     2.6309  5194.3545     0.0000     0.4897 
 8490.5000  4427.5947   176.7809   110.1464     1.1227     4.8000     1.5640     6.3639     0.0009     5.9227     4.8000     6.3639     0.0009     5.9227     5.5133     6.3639     8.8658     0.0492     0.1912     3.0050     2.6308  5153.5811     0.0000     0.4983 
 8490.7500  4427.7251   176.7841   110.9997     0.7595     4.5531     1.2820     5.8351     0.0011     5.3127     4.5531     5.8351     0.0011     5.3127     4.7459     5.8351     8.8629     0.0482     0.1905     3.0126     2.6323  5181.0059     0.0000     0.4684 
 8491.0000  4427.8550   176.7872   111.8530     0.3988     4.1510     0.9676     5.1186     0.0011     4.5498     4.1510     5.1186     0.0011     4.5498     3.8107     5.1186     8.8599     0.0473     0.1897     3.0201     2.6338  5208.4312     0.0000     0.4194 
 8491.2500  4427.9854   176.7903   113.0922     0.2544     3.4828     0.7764     4.2592     0.0007     3.7372     3.4828     4.2592     0.0007     3.7372     2.8384     4.2592     8.8658     0.0476     0.1941     3.0589     2.6334  5179.2026     0.0000     0.3560 
 8491.5000  4428.1147   176.7935   114.3314     0.2748     2.7364     0.6907     3.4271     0.0003     3.0113     2.7364     3.4271     0.0003     3.0141     1.9803     3.4271     8.8716     0.0478     0.1985     3.0978     2.6330  5149.9741     0.0000     0.2842 
 8491.7500  4428.2451   176.7966   114.3496     0.4359     2.0017     0.7493     2.7510     0.0001     2.4376     2.0017     2.7510     0.0001     2.4547     1.2820     2.7510     8.8686     0.0489     0.1966     3.1239     2.6312  5180.5581     0.0000     0.2169 
 8492.0000  4428.3750   176.7998   114.3678     0.7177     1.3314     1.0151     2.3465     0.0001     2.0490     1.3314     2.3465     0.0000     2.1124     0.7302     2.3465     8.8655     0.0500     0.1947     3.1500     2.6295  5211.1421     0.0000     0.1697 
 8492.2500  4428.5054   176.8029   115.0086     1.0659     0.8601     1.4927     2.3528     0.0002     1.9259     0.8601     2.3528     0.0001     2.0871     0.3688     2.3528     8.8692     0.0509     0.1924     3.1698     2.6281  5214.8779     0.0000     0.1507 
 8492.5000  4428.6348   176.8061   115.6494     1.3617     0.6929     2.0125     2.7054     0.0006     2.0546     0.6929     2.7054     0.0001     2.3334     0.2726     2.7054     8.8728     0.0517     0.1900     3.1897     2.6267  5218.6143     0.0011     0.1568 
 8492.7500  4428.7651   176.8092   116.2585     1.5427     0.8264     2.4358     3.2622     0.0017     2.3690     0.8264     3.2622     0.0004     2.7356     0.4862     3.2622     8.8759     0.0508     0.1888     3.2246     2.6283  5224.0312     0.0034     0.1785 
 8493.0000  4428.8950   176.8123   116.8677     1.5829     1.2084     2.6638     3.8721     0.0034     2.7912     1.2084     3.8721     0.0011     3.1662     1.0357     3.8721     8.8791     0.0498     0.1876     3.2596     2.6299  5229.4478     0.0067     0.2035 
 8493.2500  4429.0249   176.8155   116.0412     1.3769     1.8533     2.5828     4.4361     0.0054     3.2302     1.8533     4.4361     0.0025     3.5395     1.8728     4.4361     8.8712     0.0485     0.1920     3.2706     2.6321  5209.3213     0.0087     0.2181 
 8493.5000  4429.1548   176.8186   115.2147     1.0127     2.6389     2.2716     4.9105     0.0069     3.6516     2.6389     4.9105     0.0046     3.8384     2.7166     4.9105     8.8633     0.0471     0.1964     3.2815     2.6342  5189.1953     0.0089     0.2089 
