~Version Information
 VERS.                  2.0:   CWLS log ASCII Standard -VERSION 2.0
 WRAP.                   NO:   One line per depth step
~Well Information Block
#MNEM.UNIT       Data Type    Information
#---------     -----------    ---------------------------
 STRT.F              5417.0000:
 STOP.F              8969.0000:
 STEP.F                 0.2500:
 NULL.               -999.2500:
~Parameter Information Block
#MNEM.UNIT       Value        Description
#---------     -----------    ---------------------------
~Curve Information Block
#MNEM.UNIT                 API CODE     Curve Description
#---------               -----------    ---------------------------
 DEPT.F                 00 000 000 000:  
 FPRES.PSIA             00 000 000 000:  FORMATION_PRESSURE                     
 FTEMP.DEGF             00 000 000 000:  FORMATION_TEMPERATURE                  
 GR  .api               00 000 000 000:  Gamma API                              
 MBVIT1.PU              00 000 000 000:  T1_IRREDUCIBLE_POROSITY_MAX(CUT-OFF,_SP
 MCBWT1.PU              00 000 000 000:  T1_MICRO-POROSITY                      
 MPHIT1.PU              00 000 000 000:  T1_EFFECTIVE_POROSITY                  
 MSIGT1.PU              00 000 000 000:  T1_TOTAL_POROSITY                      
 T1KCOAT.MD             00 000 000 000:  T1_DIST._COATES_PERMEABILITY           
 T1PIRRMX.PU            00 000 000 000:  T1_DIST._MAXIMUM_IRREDUCIBLE_POROSITY  
 T1PMIC.PU              00 000 000 000:  T1_DIST._MICRO-POROSITY                
 T1PTOT.PU              00 000 000 000:  T1_DIST._TOTAL_POROSITY                
 T2KCOAT.MD             00 000 000 000:  T2_DIST._COATES_PERMEABILITY           
 T2PIRRMX.PU            00 000 000 000:  T2_DIST._MAXIMUM_IRREDUCIBLE_POROSITY  
 T2PMIC.PU              00 000 000 000:  T2_DIST._MICRO-POROSITY                
 T2PTOT.PU              00 000 000 000:  T2_DIST._TOTAL_POROSITY                
 CALI.in                00 000 000 000:  Caliper                                
 DPHI.decp              00 000 000 000:  DensityPorosity                        
 NPHI.decp              00 000 000 000:  Neutron Porosity                       
 PE  .b/e               00 000 000 000:  Pe                                     
 RHOB.g/cc              00 000 000 000:  Density                                
 TENS.lbs               00 000 000 000:  Tension                                
 BPERMF.                00 000 000 000:                                         
 BBINF.                 00 000 000 000:                                         
~A  DEPT        FPRES      FTEMP      GR        MBVIT1     MCBWT1     MPHIT1     MSIGT1     T1KCOAT   T1PIRRMX    T1PMIC     T1PTOT     T2KCOAT   T2PIRRMX    T2PMIC     T2PTOT      CALI       DPHI       NPHI       PE         RHOB       TENS      BPERMF      BBINF  
# ...
 8253.5000  4304.1523   173.8003   109.6240     0.1238     5.9908     1.0654     7.0562     0.0059     6.1147     5.9908     7.0562     0.0059     6.1147     5.7502     7.0562     8.9323     0.0604     0.1578     3.0099     2.6128  5216.9121     0.0031     0.3433 
 8253.7500  4304.2822   173.8034   108.5935     0.1537     7.0503     0.8038     7.8541     0.0031     7.2040     7.0503     7.8541     0.0031     7.2040     6.8051     7.8541     8.9274     0.0617     0.1541     3.0673     2.6107  5215.0186     0.0010     0.2950 
 8254.0000  4304.4121   173.8066   107.5630     0.1797     8.2382     0.5427     8.7809     0.0011     8.4178     8.2382     8.7809     0.0011     8.4173     8.0699     8.7809     8.9224     0.0629     0.1504     3.1248     2.6087  5213.1255     0.0000     0.2413 
 8254.2500  4304.5425   173.8097   105.1756     0.2223     9.3669     0.3904     9.7573     0.0003     9.5891     9.3669     9.7573     0.0003     9.5867     9.3163     9.7573     8.9186     0.0619     0.1497     3.2367     2.6104  5225.0508     0.0000     0.1783 
 8254.5000  4304.6724   173.8129   102.7881     0.3079    10.1719     0.3691    10.5409     0.0000    10.4797    10.1719    10.5409     0.0001    10.4727    10.2236    10.5409     8.9147     0.0609     0.1491     3.3486     2.6120  5236.9766     0.0000     0.1089 
 8254.7500  4304.8022   173.8160   100.0779     0.4324    10.4321     0.4489    10.8810     0.0000    10.8645    10.4321    10.8810     0.0000    10.8487    10.5722    10.8810     8.9142     0.0585     0.1432     3.4639     2.6158  5192.1699     0.0000     0.0504 
 8255.0000  4304.9321   173.8191    97.3676     0.5654    10.0247     0.5686    10.5933     0.0000    10.5901    10.0247    10.5933     0.0000    10.5551    10.2483    10.5933     8.9136     0.0561     0.1373     3.5791     2.6196  5147.3633     0.0000     0.0153 
 8255.2500  4305.0620   173.8223    95.1451     0.6737     8.8474     0.6821     9.5294     0.0000     9.5211     8.8474     9.5294     0.0001     9.4541     9.1327     9.5294     8.9109     0.0529     0.1326     3.6803     2.6249  5195.9229     0.0000     0.0024 
 8255.5000  4305.1924   173.8254    92.9225     0.7546     7.1223     0.7962     7.9185     0.0000     7.8769     7.1223     7.9185     0.0001     7.7953     7.4298     7.9185     8.9081     0.0496     0.1279     3.7816     2.6302  5244.4819     0.0000     0.0002 
 8255.7500  4305.3223   173.8286    84.7457     0.7954     5.0369     0.9291     5.9660     0.0001     5.8322     5.0369     5.9660     0.0001     5.8184     5.3230     5.9660     8.8997     0.0384     0.1190     3.9365     2.6483  5231.8281     0.0000     0.0012 
 8256.0000  4305.4521   173.8317    76.5689     0.7287     2.9251     1.0458     3.9708     0.0002     3.6537     2.9251     3.9708     0.0000     3.8333     3.1458     3.9708     8.8912     0.0272     0.1100     4.0913     2.6663  5219.1743     0.0000     0.0042 
 8256.2500  4305.5820   173.8349    66.0566     0.5225     1.3379     1.1110     2.4489     0.0004     1.8604     1.3379     2.4489     0.0000     2.3198     1.4660     2.4489     8.8833     0.0151     0.0978     4.2513     2.6857  5166.2568     0.0001     0.0107 
 8256.5000  4305.7124   173.8380    55.5443     0.3227     0.4513     1.1716     1.6229     0.0010     0.7740     0.4513     1.6229     0.0000     1.4703     0.4888     1.6229     8.8754     0.0030     0.0856     4.4113     2.7051  5113.3398     0.0002     0.0217 
 8256.7500  4305.8423   173.8412    55.4950     0.2975     0.1829     1.3046     1.4875     0.0022     0.4804     0.1829     1.4875     0.0000     1.3052     0.1227     1.4875     8.8717     0.0067     0.0844     4.3137     2.6992  5153.2729     0.0003     0.0375 
 8257.0000  4305.9722   173.8443    55.4458     0.5168     0.3512     1.5032     1.8544     0.0015     0.8680     0.3512     1.8544     0.0000     1.6539     0.1229     1.8544     8.8680     0.0103     0.0831     4.2161     2.6934  5193.2061     0.0002     0.0573 
 8257.2500  4306.1021   173.8474    65.6208     0.9086     0.9424     1.7077     2.6501     0.0009     1.8510     0.9424     2.6501     0.0000     2.4188     0.4440     2.6501     8.8800     0.0258     0.0928     3.8632     2.6686  5146.6016     0.0001     0.0792 
 8257.5000  4306.2324   173.8506    75.7959     1.3345     1.6885     1.9500     3.6384     0.0007     3.0229     1.6885     3.6384     0.0002     3.3363     0.9599     3.6384     8.8920     0.0412     0.1025     3.5103     2.6437  5099.9966     0.0000     0.0991 
 8257.7500  4306.3623   173.8537    85.8907     1.7894     2.2265     2.3620     4.5886     0.0009     4.0159     2.2265     4.5886     0.0004     4.2018     1.4672     4.5886     8.9016     0.0527     0.1190     3.2485     2.6251  5137.1240     0.0000     0.1114 
 8258.0000  4306.4922   173.8569    95.9855     2.2831     2.2544     2.9881     5.2425     0.0018     4.5375     2.2544     5.2425     0.0007     4.7857     1.6905     5.2425     8.9113     0.0643     0.1355     2.9867     2.6065  5174.2510     0.0009     0.1121 
 8258.2500  4306.6221   173.8600   101.1180     2.6781     1.7755     3.6252     5.4007     0.0039     4.4536     1.7755     5.4007     0.0009     4.8881     1.4848     5.4007     8.9190     0.0685     0.1508     2.9226     2.5998  5145.6270     0.0023     0.1007 
 8258.5000  4306.7524   173.8632   106.2505     2.8806     1.2384     3.9942     5.2326     0.0055     4.1189     1.2384     5.2326     0.0014     4.6144     1.1343     5.2326     8.9266     0.0727     0.1661     2.8586     2.5930  5117.0024     0.0037     0.0807 
 8258.7500  4306.8823   173.8663   110.0153     2.9526     0.8668     4.0313     4.8981     0.0046     3.8193     0.8668     4.8981     0.0022     4.0936     0.8466     4.8981     8.9311     0.0721     0.1729     2.8807     2.5939  5130.4072     0.0035     0.0582 
 8259.0000  4307.0122   173.8694   113.7801     2.9486     0.7296     3.8121     4.5416     0.0023     3.6782     0.7296     4.5416     0.0036     3.5148     0.7323     4.5416     8.9355     0.0716     0.1797     2.9029     2.5947  5143.8120     0.0020     0.0413 
 8259.2500  4307.1421   173.8726   116.9897     2.7629     0.8756     3.3765     4.2521     0.0010     3.6385     0.8756     4.2521     0.0044     3.1117     0.8694     4.2521     8.9383     0.0680     0.1845     2.9411     2.6005  5130.0039     0.0006     0.0422 
 8259.5000  4307.2720   173.8757   120.1994     2.3120     1.2466     2.7882     4.0348     0.0005     3.5587     1.2466     4.0348     0.0037     2.9386     1.1928     4.0348     8.9411     0.0644     0.1893     2.9792     2.6063  5116.1963     0.0000     0.0747 
 8259.7500  4307.4023   173.8789   121.2642     1.6724     1.6906     2.1736     3.8643     0.0005     3.3630     1.6906     3.8643     0.0026     2.8807     1.5092     3.8643     8.9413     0.0620     0.1880     2.9999     2.6102  5136.8994     0.0000     0.1402 
 8260.0000  4307.5322   173.8820   122.3289     1.0571     1.9761     1.7096     3.6857     0.0009     3.0333     1.9761     3.6857     0.0020     2.7751     1.5618     3.6857     8.9416     0.0596     0.1867     3.0206     2.6140  5157.6025     0.0000     0.2180 
 8260.2500  4307.6621   173.8852   121.6833     0.7329     1.9267     1.5155     3.4423     0.0012     2.6596     1.9267     3.4423     0.0017     2.5633     1.2266     3.4423     8.9484     0.0599     0.1867     3.0302     2.6136  5175.7349     0.0000     0.2733 
 8260.5000  4307.7920   173.8883   121.0377     0.7207     1.7141     1.5164     3.2304     0.0012     2.4348     1.7141     3.2304     0.0013     2.4114     0.7895     3.2304     8.9552     0.0602     0.1868     3.0398     2.6131  5193.8672     0.0000     0.2858 
 8260.7500  4307.9224   173.8915   119.9708     1.0045     1.4897     1.7476     3.2373     0.0010     2.4941     1.4897     3.2373     0.0010     2.4919     0.4749     3.2373     8.9479     0.0595     0.1858     3.0417     2.6142  5161.4229     0.0000     0.2621 
 8261.0000  4308.0522   173.8946   118.9040     1.6247     1.2434     2.3305     3.5739     0.0010     2.8681     1.2434     3.5739     0.0010     2.8681     0.3207     3.5739     8.9406     0.0589     0.1848     3.0437     2.6152  5128.9790     0.0000     0.2259 
