~Version Information
 VERS.                  2.0:   CWLS log ASCII Standard -VERSION 2.0
 WRAP.                   NO:   One line per depth step
~Well Information Block
#MNEM.UNIT       Data Type    Information
#---------     -----------    ---------------------------
 STRT.F              5417.0000:
 STOP.F              8969.0000:
 STEP.F                 0.2500:
 NULL.               -999.2500:
~Parameter Information Block
#MNEM.UNIT       Value        Description
#---------     -----------    ---------------------------
~Curve Information Block
#MNEM.UNIT                 API CODE     Curve Description
#---------               -----------    ---------------------------
 DEPT.F                 00 000 000 000:  
 FPRES.PSIA             00 000 000 000:  FORMATION_PRESSURE                     
 FTEMP.DEGF             00 000 000 000:  FORMATION_TEMPERATURE                  
 GR  .api               00 000 000 000:  Gamma API                              
 MBVIT1.PU              00 000 000 000:  T1_IRREDUCIBLE_POROSITY_MAX(CUT-OFF,_SP
 MCBWT1.PU              00 000 000 000:  T1_MICRO-POROSITY                      
 MPHIT1.PU              00 000 000 000:  T1_EFFECTIVE_POROSITY                  
 MSIGT1.PU              00 000 000 000:  T1_TOTAL_POROSITY                      
 T1KCOAT.MD             00 000 000 000:  T1_DIST._COATES_PERMEABILITY           
 T1PIRRMX.PU            00 000 000 000:  T1_DIST._MAXIMUM_IRREDUCIBLE_POROSITY  
 T1PMIC.PU              00 000 000 000:  T1_DIST._MICRO-POROSITY                
 T1PTOT.PU              00 000 000 000:  T1_DIST._TOTAL_POROSITY                
 T2KCOAT.MD             00 000 000 000:  T2_DIST._COATES_PERMEABILITY           
 T2PIRRMX.PU            00 000 000 000:  T2_DIST._MAXIMUM_IRREDUCIBLE_POROSITY  
 T2PMIC.PU              00 000 000 000:  T2_DIST._MICRO-POROSITY                
 T2PTOT.PU              00 000 000 000:  T2_DIST._TOTAL_POROSITY                
 CALI.in                00 000 000 000:  Caliper                                
 DPHI.decp              00 000 000 000:  DensityPorosity                        
 NPHI.decp              00 000 000 000:  Neutron Porosity                       
 PE  .b/e               00 000 000 000:  Pe                                     
 RHOB.g/cc              00 000 000 000:  Density                                
 TENS.lbs               00 000 000 000:  Tension                                
 BPERMF.                00 000 000 000:                                         
 BBINF.                 00 000 000 000:                                         
~A  DEPT        FPRES      FTEMP      GR        MBVIT1     MCBWT1     MPHIT1     MSIGT1     T1KCOAT   T1PIRRMX    T1PMIC     T1PTOT     T2KCOAT   T2PIRRMX    T2PMIC     T2PTOT      CALI       DPHI       NPHI       PE         RHOB       TENS      BPERMF      BBINF  
# ...
 5649.5000  2948.4663   141.0510    58.2658     0.5392     1.9581     0.7668     2.7250     0.0000     2.4973     1.9581     2.7250     0.0000     2.5008     1.5070     2.7250     8.8468     0.0171     0.1140     3.5240     2.6825  4284.1812     0.0000     0.0217 
 5649.7500  2948.5964   141.0542    69.8568     0.7086     2.5252     0.8559     3.3810     0.0000     3.2337     2.5252     3.3810     0.0000     3.2342     2.2044     3.3810     8.8639     0.0444     0.1307     3.3586     2.6385  4272.3228     0.0000     0.0319 
 5650.0000  2948.7266   141.0573    81.4477     0.9717     2.9264     1.1070     4.0333     0.0000     3.8980     2.9264     4.0333     0.0000     3.9063     2.8774     4.0333     8.8810     0.0717     0.1474     3.1933     2.5945  4260.4644     0.0000     0.0561 
 5650.2500  2948.8562   141.0605    88.4104     1.2655     3.1320     1.5055     4.6375     0.0002     4.3975     3.1320     4.6375     0.0001     4.4695     3.3952     4.6375     8.8887     0.0833     0.1614     3.1186     2.5759  4277.1904     0.0000     0.0831 
 5650.5000  2948.9863   141.0636    95.3731     1.3728     3.3309     1.8788     5.2097     0.0010     4.7037     3.3309     5.2097     0.0002     4.9490     3.7157     5.2097     8.8964     0.0949     0.1754     3.0438     2.5572  4293.9170     0.0072     0.0979 
 5650.7500  2949.1165   141.0668    97.5443     1.1934     3.6564     2.1349     5.7914     0.0046     4.8498     3.6564     5.7914     0.0007     5.3889     3.8860     5.7914     8.8979     0.0979     0.1879     3.0005     2.5524  4299.1597     0.0190     0.0917 
 5651.0000  2949.2463   141.0699    99.7155     0.8535     4.1651     2.2472     6.4123     0.0130     5.0186     4.1651     6.4123     0.0016     5.8440     4.0109     6.4123     8.8994     0.1009     0.2004     2.9571     2.5476  4304.4023     0.0327     0.0684 
 5651.2500  2949.3762   141.0730   101.6521     0.6489     4.7876     2.2496     7.0372     0.0213     5.4365     4.7876     7.0372     0.0032     6.3223     4.1498     7.0372     8.9089     0.1025     0.2039     2.9032     2.5449  4290.3032     0.0326     0.0406 
 5651.5000  2949.5063   141.0762   103.5887     0.7363     5.3195     2.2408     7.5603     0.0202     6.0557     5.3195     7.5603     0.0047     6.7543     4.2348     7.5603     8.9185     0.1042     0.2074     2.8493     2.5422  4276.2041     0.0235     0.0197 
 5651.7500  2949.6362   141.0793   105.3881     1.1143     5.5159     2.3730     7.8889     0.0141     6.6302     5.5159     7.8889     0.0057     7.0347     4.1224     7.8889     8.9184     0.1033     0.2076     2.8474     2.5437  4311.2476     0.0106     0.0105 
 5652.0000  2949.7664   141.0825   107.1875     1.8197     5.1299     2.8662     7.9961     0.0093     6.9496     5.1299     7.9961     0.0064     7.1097     3.7226     7.9961     8.9182     0.1024     0.2078     2.8454     2.5452  4346.2910     0.0037     0.0122 
 5652.2500  2949.8962   141.0856   108.1208     2.9207     4.1039     3.8307     7.9346     0.0067     7.0246     4.1039     7.9346     0.0060     7.0676     3.1445     7.9346     8.9188     0.1002     0.2109     2.8973     2.5487  4322.3389     0.0010     0.0216 
 5652.5000  2950.0264   141.0887   109.0541     4.2892     2.7979     5.0601     7.8580     0.0046     7.0871     2.7979     7.8580     0.0045     7.0945     2.6951     7.8580     8.9195     0.0980     0.2140     2.9491     2.5522  4298.3862     0.0002     0.0341 
 5652.7500  2950.1562   141.0919   109.6085     5.6375     1.6024     6.2550     7.8574     0.0028     7.2399     1.6024     7.8574     0.0028     7.2400     2.5578     7.8574     8.9176     0.0976     0.2159     2.9799     2.5528  4308.2729     0.0000     0.0445 
 5653.0000  2950.2864   141.0950   110.1628     6.5621     0.8814     7.0957     7.9771     0.0021     7.4435     0.8814     7.9771     0.0021     7.4435     2.8058     7.9771     8.9156     0.0973     0.2179     3.0107     2.5534  4318.1597     0.0000     0.0489 
 5653.2500  2950.4163   141.0982   108.8624     6.5733     1.0527     7.1912     8.2438     0.0031     7.6259     1.0527     8.2438     0.0031     7.6267     3.5128     8.2438     8.9187     0.0980     0.2114     2.9969     2.5522  4305.8364     0.0010     0.0470 
 5653.5000  2950.5464   141.1013   107.5620     5.8265     1.9672     6.6383     8.6055     0.0061     7.7937     1.9672     8.6055     0.0059     7.8044     4.4743     8.6055     8.9219     0.0988     0.2050     2.9830     2.5509  4293.5132     0.0027     0.0427 
 5653.7500  2950.6763   141.1045   107.1171     4.7541     3.2081     5.7829     8.9910     0.0110     7.9622     3.2081     8.9910     0.0098     8.0114     5.3833     8.9910     8.9223     0.0992     0.2031     2.9668     2.5503  4292.9648     0.0052     0.0417 
 5654.0000  2950.8064   141.1076   106.6723     3.8668     4.2260     5.0712     9.2971     0.0165     8.0928     4.2260     9.2971     0.0121     8.2463     5.8504     9.2971     8.9228     0.0995     0.2011     2.9505     2.5498  4292.4160     0.0066     0.0479 
 5654.2500  2950.9363   141.1108   106.4801     3.5758     4.4959     4.9012     9.3970     0.0211     8.0716     4.4959     9.3970     0.0108     8.4087     5.4692     9.3970     8.9205     0.0994     0.1971     2.9561     2.5499  4294.0903     0.0078     0.0602 
 5654.5000  2951.0664   141.1139   106.2879     3.7728     4.0875     5.2215     9.3090     0.0255     7.8603     4.0875     9.3090     0.0085     8.4145     4.4357     9.3090     8.9181     0.0994     0.1930     2.9617     2.5500  4295.7646     0.0087     0.0731 
 5654.7500  2951.1963   141.1171   104.7184     4.2525     3.2616     5.8481     9.1097     0.0311     7.5142     3.2616     9.1097     0.0073     8.2571     3.0932     9.1097     8.9173     0.1002     0.1880     2.9797     2.5487  4295.9048     0.0100     0.0820 
 5655.0000  2951.3264   141.1202   103.1489     4.7784     2.4112     6.4952     8.9064     0.0359     7.1896     2.4112     8.9064     0.0077     8.0212     1.8325     8.9064     8.9165     0.1010     0.1830     2.9977     2.5473  4296.0449     0.0118     0.0857 
 5655.2500  2951.4561   141.1233   102.9969     5.0902     1.9994     6.7873     8.7867     0.0342     7.0896     1.9994     8.7867     0.0087     7.8396     1.0114     8.7867     8.9158     0.1038     0.1805     3.0023     2.5429  4294.3477     0.0162     0.0847 
 5655.5000  2951.5862   141.1265   102.8449     5.2209     1.9517     6.7734     8.7251     0.0273     7.1726     1.9517     8.7251     0.0084     7.7893     0.6311     8.7251     8.9150     0.1066     0.1780     3.0070     2.5384  4292.6509     0.0257     0.0786 
 5655.7500  2951.7163   141.1296   100.8139     5.2420     2.0120     6.6491     8.6611     0.0212     7.2540     2.0120     8.6611     0.0060     7.8531     0.5485     8.6611     8.9144     0.1086     0.1749     2.9876     2.5351  4267.4443     0.0406     0.0669 
 5656.0000  2951.8464   141.1328    98.7830     5.1995     2.0000     6.5461     8.5461     0.0187     7.1995     2.0000     8.5461     0.0033     7.9261     0.5633     8.5461     8.9138     0.1107     0.1718     2.9682     2.5318  4242.2373     0.0568     0.0514 
 5656.2500  2951.9761   141.1359    94.7023     5.1285     1.9308     6.4384     8.3692     0.0169     7.0592     1.9308     8.3692     0.0025     7.8077     0.5642     8.3692     8.9120     0.1102     0.1723     2.9307     2.5325  4271.3203     0.0668     0.0370 
 5656.5000  2952.1062   141.1391    90.6217     5.0049     1.8646     6.3095     8.1741     0.0161     6.8694     1.8646     8.1741     0.0045     7.4412     0.5240     8.1741     8.9102     0.1098     0.1727     2.8932     2.5333  4300.4033     0.0656     0.0297 
 5656.7500  2952.2363   141.1422    89.0292     4.8334     1.7982     6.1959     7.9941     0.0172     6.6316     1.7982     7.9941     0.0100     6.9203     0.4542     7.9941     8.9102     0.1095     0.1666     2.8674     2.5338  4289.4634     0.0551     0.0346 
 5657.0000  2952.3662   141.1454    87.4367     4.6767     1.7069     6.1399     7.8468     0.0199     6.3837     1.7069     7.8468     0.0179     6.4450     0.3601     7.8468     8.9101     0.1092     0.1606     2.8417     2.5342  4278.5234     0.0434     0.0539 
