~Version Information
 VERS.                  2.0:   CWLS log ASCII Standard -VERSION 2.0
 WRAP.                   NO:   One line per depth step
~Well Information Block
#MNEM.UNIT       Data Type    Information
#---------     -----------    ---------------------------
 STRT.F              5417.0000:
 STOP.F              8969.0000:
 STEP.F                 0.2500:
 NULL.               -999.2500:
~Parameter Information Block
#MNEM.UNIT       Value        Description
#---------     -----------    ---------------------------
~Curve Information Block
#MNEM.UNIT                 API CODE     Curve Description
#---------               -----------    ---------------------------
 DEPT.F                 00 000 000 000:  
 FPRES.PSIA             00 000 000 000:  FORMATION_PRESSURE                     
 FTEMP.DEGF             00 000 000 000:  FORMATION_TEMPERATURE                  
 GR  .api               00 000 000 000:  Gamma API                              
 MBVIT1.PU              00 000 000 000:  T1_IRREDUCIBLE_POROSITY_MAX(CUT-OFF,_SP
 MCBWT1.PU              00 000 000 000:  T1_MICRO-POROSITY                      
 MPHIT1.PU              00 000 000 000:  T1_EFFECTIVE_POROSITY                  
 MSIGT1.PU              00 000 000 000:  T1_TOTAL_POROSITY                      
 T1KCOAT.MD             00 000 000 000:  T1_DIST._COATES_PERMEABILITY           
 T1PIRRMX.PU            00 000 000 000:  T1_DIST._MAXIMUM_IRREDUCIBLE_POROSITY  
 T1PMIC.PU              00 000 000 000:  T1_DIST._MICRO-POROSITY                
 T1PTOT.PU              00 000 000 000:  T1_DIST._TOTAL_POROSITY                
 T2KCOAT.MD             00 000 000 000:  T2_DIST._COATES_PERMEABILITY           
 T2PIRRMX.PU            00 000 000 000:  T2_DIST._MAXIMUM_IRREDUCIBLE_POROSITY  
 T2PMIC.PU              00 000 000 000:  T2_DIST._MICRO-POROSITY                
 T2PTOT.PU              00 000 000 000:  T2_DIST._TOTAL_POROSITY                
 CALI.in                00 000 000 000:  Caliper                                
 DPHI.decp              00 000 000 000:  DensityPorosity                        
 NPHI.decp              00 000 000 000:  Neutron Porosity                       
 PE  .b/e               00 000 000 000:  Pe                                     
 RHOB.g/cc              00 000 000 000:  Density                                
 TENS.lbs               00 000 000 000:  Tension                                
 BPERMF.                00 000 000 000:                                         
 BBINF.                 00 000 000 000:                                         
~A  DEPT        FPRES      FTEMP      GR        MBVIT1     MCBWT1     MPHIT1     MSIGT1     T1KCOAT   T1PIRRMX    T1PMIC     T1PTOT     T2KCOAT   T2PIRRMX    T2PMIC     T2PTOT      CALI       DPHI       NPHI       PE         RHOB       TENS      BPERMF      BBINF  
# ...
 8013.2500  4178.9155   170.7788   113.1736     0.1954     2.8519     1.8510     4.7029     0.0149     3.0473     2.8519     4.7029     0.0083     3.3474     3.0436     4.7029     8.9044     0.0652     0.1864     2.9521     2.6051  5045.4155     0.0232     0.0388 
 8013.5000  4179.0454   170.7819   109.9184     0.1929     3.4657     1.3951     4.8608     0.0064     3.6586     3.4657     4.8608     0.0033     3.9331     3.6429     4.8608     8.9081     0.0633     0.1814     2.9511     2.6081  5055.6104     0.0093     0.0147 
 8013.7500  4179.1758   170.7851   108.1484     0.1773     4.4216     0.9487     5.3703     0.0024     4.5989     4.4216     5.3703     0.0012     4.7988     4.5279     5.3703     8.9037     0.0631     0.1822     2.9448     2.6084  5043.3208     0.0026     0.0055 
 8014.0000  4179.3057   170.7882   106.3784     0.1381     5.4381     0.6295     6.0676     0.0011     5.5763     5.4381     6.0676     0.0006     5.6799     5.3797     6.0676     8.8993     0.0629     0.1831     2.9385     2.6088  5031.0312     0.0004     0.0059 
 8014.2500  4179.4355   170.7914   104.8202     0.1228     6.1100     0.5305     6.6405     0.0008     6.2328     6.1100     6.6405     0.0007     6.2689     5.8527     6.6405     8.9011     0.0630     0.1858     2.9902     2.6086  5034.7559     0.0000     0.0164 
 8014.5000  4179.5654   170.7945   103.2619     0.1632     6.2698     0.5828     6.8526     0.0009     6.4330     6.2698     6.8526     0.0009     6.4412     5.9211     6.8526     8.9029     0.0631     0.1886     3.0419     2.6085  5038.4810     0.0000     0.0423 
 8014.7500  4179.6958   170.7976    99.1513     0.2828     5.8951     0.7350     6.6301     0.0010     6.1779     5.8951     6.6301     0.0010     6.1810     5.6306     6.6301     8.8995     0.0587     0.1824     3.1700     2.6156  5036.9521     0.0000     0.0832 
 8015.0000  4179.8257   170.8008    95.0407     0.5597     5.0301     1.0239     6.0540     0.0009     5.5898     5.0301     6.0540     0.0009     5.6003     5.0179     6.0540     8.8962     0.0542     0.1763     3.2982     2.6227  5035.4229     0.0000     0.1274 
 8015.2500  4179.9556   170.8039    90.2471     1.0758     3.7484     1.5634     5.3118     0.0008     4.8242     3.7484     5.3118     0.0007     4.8614     4.0725     5.3118     8.8871     0.0494     0.1700     3.3787     2.6305  5039.0190     0.0000     0.1570 
 8015.5000  4180.0854   170.8071    85.4534     1.7092     2.3595     2.2867     4.6462     0.0009     4.0687     2.3595     4.6462     0.0006     4.1550     2.9550     4.6462     8.8780     0.0446     0.1638     3.4592     2.6382  5042.6152     0.0000     0.1657 
 8015.7500  4180.2158   170.8102    85.3488     2.2448     1.1785     3.0013     4.1798     0.0015     3.4233     1.1785     4.1798     0.0008     3.5832     1.8591     4.1798     8.8794     0.0472     0.1613     3.3979     2.6341  5039.9043     0.0079     0.1629 
 8016.0000  4180.3457   170.8134    85.2441     2.5360     0.4131     3.5235     3.9366     0.0027     2.9491     0.4131     3.9366     0.0013     3.2048     0.9647     3.9366     8.8809     0.0497     0.1588     3.3366     2.6300  5037.1929     0.0276     0.1616 
 8016.2500  4180.4756   170.8165    88.3756     2.6268     0.1098     3.7792     3.8890     0.0041     2.7366     0.1098     3.8890     0.0016     3.0690     0.4436     3.8890     8.8929     0.0560     0.1601     3.2055     2.6198  5113.3457     0.0619     0.1657 
 8016.5000  4180.6055   170.8196    91.5071     2.6905     0.0175     3.9021     3.9196     0.0047     2.7080     0.0175     3.9196     0.0017     3.0963     0.2246     3.9196     8.9048     0.0624     0.1613     3.0744     2.6095  5189.4985     0.0943     0.1700 
 8016.7500  4180.7358   170.8228    94.6231     2.8146     0.0010     4.0219     4.0229     0.0048     2.8156     0.0010     4.0229     0.0015     3.2555     0.2505     4.0229     8.9067     0.0643     0.1636     3.0076     2.6065  5167.2490     0.1132     0.1710 
 8017.0000  4180.8657   170.8259    97.7391     3.0230     0.0020     4.2023     4.2043     0.0047     3.0249     0.0020     4.2043     0.0013     3.4917     0.4843     4.2043     8.9087     0.0662     0.1658     2.9409     2.6034  5144.9990     0.1031     0.1707 
 8017.2500  4180.9956   170.8291    99.3210     3.3084     0.0106     4.4135     4.4241     0.0043     3.3190     0.0106     4.4241     0.0014     3.7044     0.9478     4.4241     8.9162     0.0653     0.1669     2.9616     2.6049  5111.7266     0.0732     0.1732 
 8017.5000  4181.1255   170.8322   100.9028     3.5316     0.0557     4.5152     4.5709     0.0033     3.5873     0.0557     4.5709     0.0017     3.8151     1.4849     4.5709     8.9237     0.0643     0.1680     2.9823     2.6064  5078.4541     0.0345     0.1766 
 8017.7500  4181.2559   170.8354   100.3167     3.5585     0.1878     4.3897     4.5775     0.0022     3.7463     0.1878     4.5775     0.0016     3.8371     1.8455     4.5775     8.9178     0.0648     0.1671     3.0292     2.6056  5125.7979     0.0103     0.1733 
 8018.0000  4181.3857   170.8385    99.7305     3.2976     0.4706     3.9595     4.4301     0.0012     3.7682     0.4706     4.4301     0.0011     3.7904     1.8332     4.4301     8.9118     0.0653     0.1662     3.0761     2.6049  5173.1416     0.0000     0.1555 
 8018.2500  4181.5156   170.8417    99.5083     2.7675     0.8735     3.2847     4.1583     0.0006     3.6410     0.8735     4.1583     0.0006     3.6487     1.4690     4.1583     8.9101     0.0670     0.1628     3.1039     2.6023  5097.8740     0.0000     0.1227 
 8018.5000  4181.6455   170.8448    99.2862     2.2006     1.1989     2.6706     3.8695     0.0004     3.3995     1.1989     3.8695     0.0004     3.3933     1.0683     3.8695     8.9083     0.0686     0.1595     3.1317     2.5996  5022.6060     0.0000     0.0831 
 8018.7500  4181.7759   170.8479   101.5007     1.8109     1.3292     2.3355     3.6648     0.0005     3.1401     1.3292     3.6648     0.0006     3.0903     0.7825     3.6648     8.9136     0.0712     0.1658     3.1233     2.5954  5063.4580     0.0000     0.0472 
 8019.0000  4181.9058   170.8511   103.7153     1.7374     1.3036     2.3334     3.6370     0.0007     3.0410     1.3036     3.6370     0.0011     2.8990     0.6705     3.6370     8.9188     0.0737     0.1721     3.1148     2.5913  5104.3105     0.0000     0.0220 
 8019.2500  4182.0356   170.8542   106.8527     1.9922     1.2588     2.6098     3.8687     0.0008     3.2510     1.2588     3.8687     0.0019     2.9959     0.8003     3.8687     8.9196     0.0758     0.1815     3.0752     2.5880  5087.6685     0.0000     0.0087 
 8019.5000  4182.1655   170.8574   109.9901     2.3436     1.2460     3.0258     4.2718     0.0012     3.5896     1.2460     4.2718     0.0029     3.3028     1.1450     4.2718     8.9204     0.0778     0.1909     3.0356     2.5847  5071.0264     0.0001     0.0053 
 8019.7500  4182.2954   170.8605   111.0259     2.6452     1.2146     3.5071     4.7218     0.0025     3.8598     1.2146     4.7218     0.0045     3.6360     1.6133     4.7218     8.9226     0.0775     0.1899     2.9911     2.5852  5053.7285     0.0005     0.0102 
 8020.0000  4182.4258   170.8637   112.0617     2.9254     1.0788     3.9845     5.0633     0.0046     4.0041     1.0788     5.0633     0.0060     3.8858     2.0266     5.0633     8.9249     0.0773     0.1890     2.9465     2.5856  5036.4307     0.0009     0.0230 
 8020.2500  4182.5552   170.8668   111.6420     3.2466     0.7864     4.3304     5.1168     0.0050     4.0330     0.7864     5.1168     0.0053     4.0084     2.1094     5.1168     8.9274     0.0754     0.1910     2.9528     2.5887  5059.6714     0.0011     0.0435 
 8020.5000  4182.6855   170.8699   111.2224     3.4688     0.4476     4.4562     4.9038     0.0037     3.9163     0.4476     4.9038     0.0032     3.9781     1.8916     4.9038     8.9299     0.0734     0.1929     2.9592     2.5918  5082.9121     0.0007     0.0698 
 8020.7500  4182.8154   170.8731   110.6422     3.4784     0.1814     4.3584     4.5398     0.0025     3.6598     0.1814     4.5398     0.0017     3.7893     1.5675     4.5398     8.9241     0.0724     0.1882     3.0178     2.5933  5066.8809     0.0003     0.0995 
