~Version Information
 VERS.                  2.0:   CWLS log ASCII Standard -VERSION 2.0
 WRAP.                   NO:   One line per depth step
~Well Information Block
#MNEM.UNIT       Data Type    Information
#---------     -----------    ---------------------------
 STRT.F              5417.0000:
 STOP.F              8969.0000:
 STEP.F                 0.2500:
 NULL.               -999.2500:
~Parameter Information Block
#MNEM.UNIT       Value        Description
#---------     -----------    ---------------------------
~Curve Information Block
#MNEM.UNIT                 API CODE     Curve Description
#---------               -----------    ---------------------------
 DEPT.F                 00 000 000 000:  
 FPRES.PSIA             00 000 000 000:  FORMATION_PRESSURE                     
 FTEMP.DEGF             00 000 000 000:  FORMATION_TEMPERATURE                  
 GR  .api               00 000 000 000:  Gamma API                              
 MBVIT1.PU              00 000 000 000:  T1_IRREDUCIBLE_POROSITY_MAX(CUT-OFF,_SP
 MCBWT1.PU              00 000 000 000:  T1_MICRO-POROSITY                      
 MPHIT1.PU              00 000 000 000:  T1_EFFECTIVE_POROSITY                  
 MSIGT1.PU              00 000 000 000:  T1_TOTAL_POROSITY                      
 T1KCOAT.MD             00 000 000 000:  T1_DIST._COATES_PERMEABILITY           
 T1PIRRMX.PU            00 000 000 000:  T1_DIST._MAXIMUM_IRREDUCIBLE_POROSITY  
 T1PMIC.PU              00 000 000 000:  T1_DIST._MICRO-POROSITY                
 T1PTOT.PU              00 000 000 000:  T1_DIST._TOTAL_POROSITY                
 T2KCOAT.MD             00 000 000 000:  T2_DIST._COATES_PERMEABILITY           
 T2PIRRMX.PU            00 000 000 000:  T2_DIST._MAXIMUM_IRREDUCIBLE_POROSITY  
 T2PMIC.PU              00 000 000 000:  T2_DIST._MICRO-POROSITY                
 T2PTOT.PU              00 000 000 000:  T2_DIST._TOTAL_POROSITY                
 CALI.in                00 000 000 000:  Caliper                                
 DPHI.decp              00 000 000 000:  DensityPorosity                        
 NPHI.decp              00 000 000 000:  Neutron Porosity                       
 PE  .b/e               00 000 000 000:  Pe                                     
 RHOB.g/cc              00 000 000 000:  Density                                
 TENS.lbs               00 000 000 000:  Tension                                
 BPERMF.                00 000 000 000:                                         
 BBINF.                 00 000 000 000:                                         
~A  DEPT        FPRES      FTEMP      GR        MBVIT1     MCBWT1     MPHIT1     MSIGT1     T1KCOAT   T1PIRRMX    T1PMIC     T1PTOT     T2KCOAT   T2PIRRMX    T2PMIC     T2PTOT      CALI       DPHI       NPHI       PE         RHOB       TENS      BPERMF      BBINF  
# ...
 7780.7500  4057.7090   167.8547    96.1712     1.0959     2.0983     2.2224     4.3207     0.0043     3.1942     2.0983     4.3207     0.0048     3.1560     2.4840     4.3207     8.8839     0.0704     0.1489     3.3770     2.5966  4967.6221     0.0027     0.0414 
 7781.0000  4057.8389   167.8579    86.1316     0.6948     1.7102     1.7798     3.4901     0.0030     2.4051     1.7102     3.4901     0.0023     2.4974     1.3591     3.4901     8.8785     0.0629     0.1280     3.5691     2.6087  4942.0679     0.0020     0.0163 
 7781.2500  4057.9688   167.8610    74.1595     0.6320     1.2234     1.7036     2.9269     0.0025     1.8554     1.2234     2.9269     0.0007     2.2416     0.6592     2.9269     8.8640     0.0483     0.1093     3.9495     2.6321  5014.8037     0.0023     0.0058 
 7781.5000  4058.0989   167.8642    62.1874     0.5793     0.7498     1.8007     2.5504     0.0038     1.3291     0.7498     2.5504     0.0002     2.0668     0.2676     2.5504     8.8495     0.0338     0.0906     4.3299     2.6555  5087.5391     0.0069     0.0052 
 7781.7500  4058.2290   167.8673    58.6095     0.4475     0.3683     1.9211     2.2894     0.0098     0.8158     0.3683     2.2894     0.0002     1.8216     0.0870     2.2894     8.8428     0.0335     0.0828     4.4064     2.6560  5048.0146     0.0196     0.0134 
 7782.0000  4058.3589   167.8705    55.0315     0.3131     0.1283     1.9661     2.0945     0.0270     0.4414     0.1283     2.0945     0.0003     1.4991     0.0186     2.0945     8.8362     0.0332     0.0751     4.4830     2.6565  5008.4907     0.0423     0.0322 
 7782.2500  4058.4888   167.8736    64.5808     0.2821     0.0340     1.9412     1.9752     0.0422     0.3161     0.0340     1.9752     0.0006     1.2090     0.0038     1.9752     8.8326     0.0459     0.0799     4.0863     2.6361  4995.6299     0.0716     0.0649 
 7782.5000  4058.6189   167.8767    74.1301     0.3992     0.0054     1.9347     1.9401     0.0238     0.4046     0.0054     1.9401     0.0010     1.0501     0.0003     1.9401     8.8291     0.0586     0.0847     3.6896     2.6156  4982.7686     0.0982     0.1136 
 7782.7500  4058.7488   167.8799    86.4025     0.6466     0.0181     1.9790     1.9971     0.0071     0.6647     0.0181     1.9971     0.0013     1.0400     0.0198     1.9971     8.8502     0.0662     0.1164     3.3495     2.6034  5030.3535     0.1016     0.1780 
 7783.0000  4058.8789   167.8830    98.6749     0.8960     0.1100     2.0390     2.1490     0.0028     1.0060     0.1100     2.1490     0.0015     1.1699     0.1079     2.1490     8.8713     0.0739     0.1481     3.0093     2.5911  5077.9385     0.0807     0.2522 
 7783.2500  4059.0088   167.8862   106.1927     0.9880     0.4647     1.9847     2.4494     0.0017     1.4527     0.4647     2.4494     0.0014     1.5072     0.4306     2.4494     8.8789     0.0780     0.1708     2.9388     2.5845  5005.9980     0.0410     0.3216 
 7783.5000  4059.1389   167.8893   113.7105     0.8779     1.1760     1.7571     2.9331     0.0014     2.0539     1.1760     2.9331     0.0013     2.0657     1.0286     2.9331     8.8865     0.0820     0.1935     2.8683     2.5780  4934.0571     0.0135     0.3661 
 7783.7500  4059.2688   167.8925   118.1519     0.6358     2.1926     1.4301     3.6227     0.0014     2.8284     2.1926     3.6227     0.0014     2.8293     1.8314     3.6227     8.8871     0.0851     0.1948     2.8797     2.5730  4962.5859     0.0000     0.3672 
 7784.0000  4059.3989   167.8956   122.5933     0.3986     3.3118     1.1677     4.4795     0.0017     3.7104     3.3118     4.4795     0.0017     3.7104     2.6667     4.4795     8.8876     0.0882     0.1961     2.8910     2.5680  4991.1152     0.0148     0.3225 
 7784.2500  4059.5288   167.8987   125.2677     0.2909     4.2406     1.1727     5.4133     0.0034     4.5315     4.2406     5.4133     0.0034     4.5317     3.3314     5.4133     8.8929     0.0869     0.2023     2.8960     2.5702  4978.2148     0.0446     0.2475 
 7784.5000  4059.6589   167.9019   127.9421     0.2659     4.9246     1.4058     6.3304     0.0081     5.1905     4.9246     6.3304     0.0081     5.1919     3.8591     6.3304     8.8982     0.0855     0.2085     2.9011     2.5724  4965.3145     0.0856     0.1688 
 7784.7500  4059.7888   167.9050   126.9229     0.2765     5.4531     1.7647     7.2178     0.0188     5.7296     5.4531     7.2178     0.0187     5.7339     4.4136     7.2178     8.8962     0.0845     0.2035     2.8895     2.5740  4967.8184     0.1030     0.1055 
 7785.0000  4059.9189   167.9082   125.9037     0.3494     5.9832     2.1295     8.1127     0.0342     6.3326     5.9832     8.1127     0.0339     6.3401     5.2381     8.1127     8.8942     0.0834     0.1986     2.8778     2.5757  4970.3218     0.0927     0.0636 
 7785.2500  4060.0486   167.9113   122.5645     0.6091     6.6014     2.4555     9.0569     0.0441     7.2105     6.6014     9.0569     0.0436     7.2185     6.4843     9.0569     8.8924     0.0851     0.1953     2.8727     2.5731  4965.1069     0.0607     0.0417 
 7785.5000  4060.1787   167.9145   119.2252     1.0431     7.2436     2.7538     9.9973     0.0426     8.2866     7.2436     9.9973     0.0422     8.2919     7.9050     9.9973     8.8905     0.0867     0.1921     2.8676     2.5704  4959.8921     0.0320     0.0416 
 7785.7500  4060.3088   167.9176   116.5085     1.4198     7.9306     2.8742    10.8049     0.0331     9.3504     7.9306    10.8049     0.0330     9.3522     9.1899    10.8049     8.8874     0.0882     0.1888     2.8608     2.5679  4959.8921     0.0138     0.0682 
 7786.0000  4060.4390   167.9208   113.7919     1.4914     8.6535     2.6641    11.3176     0.0219    10.1450     8.6535    11.3176     0.0219    10.1452    10.0465    11.3176     8.8842     0.0898     0.1855     2.8540     2.5654  4959.8921     0.0052     0.1206 
 7786.2500  4060.5686   167.9239   112.7919     1.2189     9.1700     2.1603    11.3303     0.0136    10.3889     9.1700    11.3303     0.0136    10.3888    10.1474    11.3303     8.8813     0.0917     0.1833     2.8404     2.5624  4961.4326     0.0017     0.1861 
 7786.5000  4060.6987   167.9270   111.7920     0.9427     9.1191     1.7438    10.8629     0.0089    10.0618     9.1191    10.8629     0.0089    10.0617     9.5089    10.8629     8.8783     0.0936     0.1811     2.8267     2.5594  4962.9731     0.0005     0.2449 
 7786.7500  4060.8289   167.9302   111.9499     0.8421     8.3490     1.5903     9.9393     0.0065     9.1911     8.3490     9.9393     0.0065     9.1911     8.2503     9.9393     8.8755     0.0966     0.1807     2.8380     2.5546  4945.5859     0.0000     0.2828 
 7787.0000  4060.9587   167.9333   112.1078     0.9169     6.9650     1.6707     8.6357     0.0051     7.8820     6.9650     8.6357     0.0051     7.8820     6.5964     8.6357     8.8728     0.0995     0.1804     2.8494     2.5498  4928.1987     0.0000     0.2949 
 7787.2500  4061.0886   167.9365   110.3836     1.0553     5.3742     1.8668     7.2410     0.0044     6.4295     5.3742     7.2410     0.0043     6.4313     4.9620     7.2410     8.8674     0.1002     0.1786     2.8802     2.5487  4961.8809     0.0007     0.2802 
 7787.5000  4061.2188   167.9396   108.6594     1.1553     4.0482     2.0884     6.1367     0.0045     5.2035     4.0482     6.1367     0.0043     5.2224     3.6975     6.1367     8.8621     0.1009     0.1769     2.9109     2.5476  4995.5625     0.0019     0.2390 
 7787.7500  4061.3489   167.9428   102.2978     1.2107     3.1163     2.3486     5.4649     0.0062     4.3270     3.1163     5.4649     0.0051     4.4129     2.8947     5.4649     8.8577     0.0910     0.1705     2.9996     2.5635  4948.5488     0.0032     0.1771 
 7788.0000  4061.4788   167.9459    95.9362     1.2907     2.3688     2.6805     5.0493     0.0094     3.6594     2.3688     5.0493     0.0055     3.9100     2.3290     5.0493     8.8534     0.0811     0.1640     3.0882     2.5794  4901.5356     0.0032     0.1100 
 7788.2500  4061.6086   167.9491    84.0316     1.4781     1.5688     3.0299     4.5987     0.0116     3.0469     1.5688     4.5987     0.0039     3.5634     1.6971     4.5987     8.8442     0.0550     0.1439     3.3215     2.6214  4935.8389     0.0024     0.0553 
