~Version Information
 VERS.                  2.0:   CWLS log ASCII Standard -VERSION 2.0
 WRAP.                   NO:   One line per depth step
~Well Information Block
#MNEM.UNIT       Data Type    Information
#---------     -----------    ---------------------------
 STRT.F              5417.0000:
 STOP.F              8969.0000:
 STEP.F                 0.2500:
 NULL.               -999.2500:
~Parameter Information Block
#MNEM.UNIT       Value        Description
#---------     -----------    ---------------------------
~Curve Information Block
#MNEM.UNIT                 API CODE     Curve Description
#---------               -----------    ---------------------------
 DEPT.F                 00 000 000 000:  
 FPRES.PSIA             00 000 000 000:  FORMATION_PRESSURE                     
 FTEMP.DEGF             00 000 000 000:  FORMATION_TEMPERATURE                  
 GR  .api               00 000 000 000:  Gamma API                              
 MBVIT1.PU              00 000 000 000:  T1_IRREDUCIBLE_POROSITY_MAX(CUT-OFF,_SP
 MCBWT1.PU              00 000 000 000:  T1_MICRO-POROSITY                      
 MPHIT1.PU              00 000 000 000:  T1_EFFECTIVE_POROSITY                  
 MSIGT1.PU              00 000 000 000:  T1_TOTAL_POROSITY                      
 T1KCOAT.MD             00 000 000 000:  T1_DIST._COATES_PERMEABILITY           
 T1PIRRMX.PU            00 000 000 000:  T1_DIST._MAXIMUM_IRREDUCIBLE_POROSITY  
 T1PMIC.PU              00 000 000 000:  T1_DIST._MICRO-POROSITY                
 T1PTOT.PU              00 000 000 000:  T1_DIST._TOTAL_POROSITY                
 T2KCOAT.MD             00 000 000 000:  T2_DIST._COATES_PERMEABILITY           
 T2PIRRMX.PU            00 000 000 000:  T2_DIST._MAXIMUM_IRREDUCIBLE_POROSITY  
 T2PMIC.PU              00 000 000 000:  T2_DIST._MICRO-POROSITY                
 T2PTOT.PU              00 000 000 000:  T2_DIST._TOTAL_POROSITY                
 CALI.in                00 000 000 000:  Caliper                                
 DPHI.decp              00 000 000 000:  DensityPorosity                        
 NPHI.decp              00 000 000 000:  Neutron Porosity                       
 PE  .b/e               00 000 000 000:  Pe                                     
 RHOB.g/cc              00 000 000 000:  Density                                
 TENS.lbs               00 000 000 000:  Tension                                
 BPERMF.                00 000 000 000:                                         
 BBINF.                 00 000 000 000:                                         
~A  DEPT        FPRES      FTEMP      GR        MBVIT1     MCBWT1     MPHIT1     MSIGT1     T1KCOAT   T1PIRRMX    T1PMIC     T1PTOT     T2KCOAT   T2PIRRMX    T2PMIC     T2PTOT      CALI       DPHI       NPHI       PE         RHOB       TENS      BPERMF      BBINF  
# ...
 7540.5000  3932.4722   164.8332    99.8150     2.1526     1.5504     4.1101     5.6605     0.0287     3.7030     1.5504     5.6605     0.0259     3.7697     1.2969     5.6605     8.8524     0.0943     0.1783     3.3551     2.5582  4885.5483     0.0513     0.0404 
 7540.7500  3932.6023   164.8364   104.3849     2.0042     1.5546     3.7989     5.3535     0.0211     3.5588     1.5546     5.3535     0.0156     3.7428     1.0806     5.3535     8.8576     0.1047     0.1816     3.2484     2.5415  4877.2920     0.0394     0.0522 
 7541.0000  3932.7322   164.8395   108.9548     2.3203     1.2469     3.7966     5.0436     0.0111     3.5672     1.2469     5.0436     0.0055     3.9016     0.7369     5.0436     8.8628     0.1150     0.1850     3.1418     2.5249  4869.0352     0.0260     0.0645 
 7541.2500  3932.8623   164.8427   111.9670     2.9100     0.7431     3.9940     4.7371     0.0046     3.6531     0.7431     4.7371     0.0017     4.0238     0.3848     4.7371     8.8681     0.1160     0.1970     3.0840     2.5234  4879.0845     0.0148     0.0736 
 7541.5000  3932.9922   164.8458   114.9792     3.4221     0.3242     4.1557     4.4799     0.0016     3.7463     0.3242     4.4799     0.0005     4.0244     0.1506     4.4799     8.8734     0.1169     0.2090     3.0263     2.5218  4889.1338     0.0062     0.0785 
 7541.7500  3933.1223   164.8489   114.3465     3.7176     0.1088     4.2275     4.3363     0.0006     3.8263     0.1088     4.3363     0.0003     3.9722     0.0600     4.3363     8.8736     0.1059     0.2076     3.1000     2.5395  4899.6196     0.0018     0.0830 
 7542.0000  3933.2522   164.8521   113.7137     3.8196     0.0791     4.2884     4.3675     0.0005     3.8987     0.0791     4.3675     0.0004     3.9594     0.0732     4.3675     8.8738     0.0949     0.2062     3.1737     2.5572  4910.1055     0.0000     0.0912 
 7542.2500  3933.3823   164.8552   111.5816     3.7866     0.2376     4.3898     4.6274     0.0011     4.0242     0.2376     4.6274     0.0009     4.0700     0.2073     4.6274     8.8734     0.0839     0.2045     3.2600     2.5748  4942.4038     0.0030     0.1040 
 7542.5000  3933.5122   164.8584   109.4495     3.5950     0.6017     4.4363     5.0381     0.0027     4.1967     0.6017     5.0381     0.0021     4.2809     0.4949     5.0381     8.8729     0.0730     0.2028     3.3462     2.5924  4974.7021     0.0102     0.1174 
 7542.7500  3933.6421   164.8615   110.4221     3.2057     1.1921     4.3272     5.5192     0.0062     4.3978     1.1921     5.5192     0.0042     4.5538     0.9831     5.5192     8.8713     0.0772     0.1997     3.3377     2.5858  4927.3467     0.0226     0.1263 
 7543.0000  3933.7722   164.8647   111.3948     2.6593     1.9641     4.0144     5.9785     0.0110     4.6234     1.9641     5.9785     0.0071     4.8368     1.6614     5.9785     8.8696     0.0813     0.1965     3.3293     2.5791  4879.9917     0.0342     0.1260 
 7543.2500  3933.9021   164.8678   117.0273     2.2442     2.6332     3.6446     6.2778     0.0128     4.8774     2.6332     6.2778     0.0090     5.0593     2.4024     6.2778     8.8724     0.0925     0.2030     3.2627     2.5609  4876.8213     0.0374     0.1131 
 7543.5000  3934.0322   164.8709   122.6597     2.2487     2.8570     3.4779     6.3350     0.0095     5.1057     2.8570     6.3350     0.0081     5.1742     2.9957     6.3350     8.8753     0.1038     0.2094     3.1960     2.5428  4873.6509     0.0303     0.0881 
 7543.7500  3934.1621   164.8741   125.7848     2.8085     2.4020     3.7239     6.1259     0.0045     5.2105     2.4020     6.1259     0.0050     5.1659     3.1764     6.1259     8.8757     0.1073     0.2115     3.1393     2.5372  4881.1064     0.0157     0.0571 
 7544.0000  3934.2922   164.8772   128.9099     3.6156     1.4978     4.2310     5.7288     0.0016     5.1134     1.4978     5.7288     0.0020     5.0446     2.7977     5.7288     8.8761     0.1108     0.2137     3.0827     2.5316  4888.5625     0.0053     0.0298 
 7544.2500  3934.4221   164.8804   124.7468     4.1540     0.6766     4.6424     5.3190     0.0008     4.8307     0.6766     5.3190     0.0008     4.8301     1.9421     5.3190     8.8764     0.1085     0.2047     3.0746     2.5352  4843.9580     0.0000     0.0130 
 7544.5000  3934.5522   164.8835   120.5838     4.2884     0.2412     4.8208     5.0621     0.0009     4.5296     0.2412     5.0621     0.0006     4.6191     1.0785     5.0621     8.8768     0.1063     0.1957     3.0665     2.5389  4799.3530     0.0000     0.0064 
 7544.7500  3934.6821   164.8867   115.6269     4.2653     0.0928     4.9389     5.0316     0.0016     4.3581     0.0928     5.0316     0.0007     4.5512     0.4768     5.0316     8.8720     0.1005     0.1914     3.1183     2.5482  4893.9399     0.0002     0.0056 
 7545.0000  3934.8123   164.8898   110.6700     4.2652     0.0973     5.1262     5.2236     0.0029     4.3625     0.0973     5.2236     0.0008     4.7219     0.2062     5.2236     8.8672     0.0947     0.1871     3.1701     2.5576  4988.5269     0.0006     0.0062 
 7545.2500  3934.9421   164.8930   106.7665     4.3268     0.1918     5.3650     5.5568     0.0051     4.5187     0.1918     5.5568     0.0007     5.1146     0.2207     5.5568     8.8666     0.0864     0.1790     3.2365     2.5711  4969.6719     0.0014     0.0075 
 7545.5000  3935.0720   164.8961   102.8631     4.4303     0.3047     5.5490     5.8538     0.0066     4.7350     0.3047     5.8538     0.0005     5.5006     0.3283     5.8538     8.8661     0.0780     0.1709     3.3030     2.5845  4950.8169     0.0019     0.0110 
 7545.7500  3935.2021   164.8992    98.4457     4.5405     0.4129     5.5936     6.0065     0.0059     4.9535     0.4129     6.0065     0.0003     5.7300     0.4521     6.0065     8.8640     0.0731     0.1572     3.3357     2.5924  4926.8818     0.0018     0.0199 
 7546.0000  3935.3323   164.9024    94.0284     4.5277     0.5594     5.4308     5.9902     0.0041     5.0871     0.5594     5.9902     0.0003     5.7344     0.5958     5.9902     8.8619     0.0682     0.1434     3.3684     2.6003  4902.9473     0.0025     0.0370 
 7546.2500  3935.4622   164.9055    89.2567     4.1083     0.8776     4.9784     5.8559     0.0036     4.9859     0.8776     5.8559     0.0004     5.5319     0.8307     5.8559     8.8634     0.0665     0.1353     3.4014     2.6030  4900.0898     0.0057     0.0637 
 7546.5000  3935.5920   164.9087    84.4850     3.3664     1.3454     4.3772     5.7226     0.0050     4.7118     1.3454     5.7226     0.0008     5.2616     1.1149     5.7226     8.8649     0.0648     0.1272     3.4344     2.6056  4897.2329     0.0125     0.0971 
 7546.7500  3935.7222   164.9118    77.4987     2.5187     1.8534     3.8026     5.6560     0.0090     4.3721     1.8534     5.6560     0.0017     5.0123     1.4093     5.6560     8.8564     0.0626     0.1218     3.5666     2.6092  4849.7041     0.0218     0.1296 
 7547.0000  3935.8521   164.9150    70.5125     1.7524     2.2975     3.3724     5.6699     0.0165     4.0500     2.2975     5.6699     0.0032     4.8184     1.7532     5.6699     8.8479     0.0604     0.1165     3.6989     2.6128  4802.1758     0.0332     0.1512 
 7547.2500  3935.9822   164.9181    65.2633     1.2383     2.5532     3.1347     5.6879     0.0263     3.7915     2.5532     5.6879     0.0056     4.6223     2.1415     5.6879     8.8468     0.0609     0.1134     3.8211     2.6120  4891.1777     0.0454     0.1550 
 7547.5000  3936.1121   164.9212    60.0141     1.0101     2.5583     3.0055     5.5638     0.0300     3.5684     2.5583     5.5638     0.0080     4.3204     2.3652     5.5638     8.8456     0.0613     0.1102     3.9433     2.6112  4980.1802     0.0568     0.1419 
 7547.7500  3936.2419   164.9244    63.9791     1.1472     2.2122     2.9786     5.1908     0.0218     3.3595     2.2122     5.1908     0.0089     3.8457     2.1793     5.1908     8.8527     0.0675     0.1218     3.8326     2.6012  4935.3008     0.0638     0.1186 
 7548.0000  3936.3721   164.9276    67.9441     1.5178     1.5618     3.0473     4.6091     0.0111     3.0796     1.5618     4.6091     0.0078     3.2533     1.5819     4.6091     8.8598     0.0738     0.1334     3.7220     2.5911  4890.4214     0.0638     0.0924 
