~Version Information
 VERS.                  2.0:   CWLS log ASCII Standard -VERSION 2.0
 WRAP.                   NO:   One line per depth step
~Well Information Block
#MNEM.UNIT       Data Type    Information
#---------     -----------    ---------------------------
 STRT.F              5417.0000:
 STOP.F              8969.0000:
 STEP.F                 0.2500:
 NULL.               -999.2500:
~Parameter Information Block
#MNEM.UNIT       Value        Description
#---------     -----------    ---------------------------
~Curve Information Block
#MNEM.UNIT                 API CODE     Curve Description
#---------               -----------    ---------------------------
 DEPT.F                 00 000 000 000:  
 FPRES.PSIA             00 000 000 000:  FORMATION_PRESSURE                     
 FTEMP.DEGF             00 000 000 000:  FORMATION_TEMPERATURE                  
 GR  .api               00 000 000 000:  Gamma API                              
 MBVIT1.PU              00 000 000 000:  T1_IRREDUCIBLE_POROSITY_MAX(CUT-OFF,_SP
 MCBWT1.PU              00 000 000 000:  T1_MICRO-POROSITY                      
 MPHIT1.PU              00 000 000 000:  T1_EFFECTIVE_POROSITY                  
 MSIGT1.PU              00 000 000 000:  T1_TOTAL_POROSITY                      
 T1KCOAT.MD             00 000 000 000:  T1_DIST._COATES_PERMEABILITY           
 T1PIRRMX.PU            00 000 000 000:  T1_DIST._MAXIMUM_IRREDUCIBLE_POROSITY  
 T1PMIC.PU              00 000 000 000:  T1_DIST._MICRO-POROSITY                
 T1PTOT.PU              00 000 000 000:  T1_DIST._TOTAL_POROSITY                
 T2KCOAT.MD             00 000 000 000:  T2_DIST._COATES_PERMEABILITY           
 T2PIRRMX.PU            00 000 000 000:  T2_DIST._MAXIMUM_IRREDUCIBLE_POROSITY  
 T2PMIC.PU              00 000 000 000:  T2_DIST._MICRO-POROSITY                
 T2PTOT.PU              00 000 000 000:  T2_DIST._TOTAL_POROSITY                
 CALI.in                00 000 000 000:  Caliper                                
 DPHI.decp              00 000 000 000:  DensityPorosity                        
 NPHI.decp              00 000 000 000:  Neutron Porosity                       
 PE  .b/e               00 000 000 000:  Pe                                     
 RHOB.g/cc              00 000 000 000:  Density                                
 TENS.lbs               00 000 000 000:  Tension                                
 BPERMF.                00 000 000 000:                                         
 BBINF.                 00 000 000 000:                                         
~A  DEPT        FPRES      FTEMP      GR        MBVIT1     MCBWT1     MPHIT1     MSIGT1     T1KCOAT   T1PIRRMX    T1PMIC     T1PTOT     T2KCOAT   T2PIRRMX    T2PMIC     T2PTOT      CALI       DPHI       NPHI       PE         RHOB       TENS      BPERMF      BBINF  
# ...
 7067.7500  3686.3408   158.8877    89.3504     1.9992     1.7668     4.6165     6.3833     0.0805     3.7660     1.7668     6.3833     0.0076     5.2610     2.6637     6.3833     8.7969     0.0946     0.1511     3.0602     2.5577  4825.7578     0.0179     0.2644 
 7068.0000  3686.4707   158.8908    87.4110     2.0125     0.7382     4.6173     5.3555     0.0738     2.7506     0.7382     5.3555     0.0039     4.3968     1.5547     5.3555     8.7913     0.0927     0.1466     3.1293     2.5607  4811.4629     0.0184     0.2229 
 7068.2500  3686.6008   158.8940    79.8059     2.0324     0.2366     4.4539     4.6905     0.0558     2.2690     0.2366     4.6905     0.0018     3.9387     0.7753     4.6905     8.7857     0.0826     0.1266     3.2642     2.5769  4833.5498     0.0172     0.1703 
 7068.5000  3686.7307   158.8971    72.2008     2.3718     0.0505     4.4168     4.4673     0.0300     2.4223     0.0505     4.4673     0.0009     3.8777     0.3828     4.4673     8.7801     0.0726     0.1066     3.3991     2.5931  4855.6362     0.0136     0.1180 
 7068.7500  3686.8608   158.9003    60.8962     3.1298     0.0043     4.6413     4.6457     0.0116     3.1341     0.0043     4.6457     0.0006     4.1571     0.3874     4.6457     8.7737     0.0515     0.0982     3.6318     2.6271  4837.7227     0.0087     0.0767 
 7069.0000  3686.9907   158.9034    49.5917     4.0747     0.0001     5.0722     5.0723     0.0040     4.0748     0.0001     5.0723     0.0006     4.6190     0.7336     5.0723     8.7672     0.0304     0.0898     3.8645     2.6611  4819.8096     0.0038     0.0567 
 7069.2500  3687.1206   158.9065    42.4342     4.7914     0.0004     5.5365     5.5369     0.0023     4.7918     0.0004     5.5369     0.0010     5.0158     1.3661     5.5369     8.7604     0.0093     0.0747     4.1492     2.6951  4826.3242     0.0011     0.0685 
 7069.5000  3687.2507   158.9097    35.2766     5.1050     0.0010     5.8613     5.8623     0.0026     5.1060     0.0010     5.8623     0.0021     5.1786     2.0344     5.8623     8.7536    -0.0118     0.0597     4.4339     2.7290  4832.8384     0.0076     0.1188 
 7069.7500  3687.3809   158.9128    30.5016     5.0067     0.0014     5.9580     5.9594     0.0046     5.0081     0.0014     5.9594     0.0043     5.0400     2.4419     5.9594     8.7509    -0.0209     0.0508     4.6360     2.7438  4827.4160     0.0262     0.2026 
 7070.0000  3687.5107   158.9160    25.7267     4.5231     0.0013     5.7931     5.7944     0.0089     4.5244     0.0013     5.7944     0.0078     4.5865     2.3721     5.7944     8.7482    -0.0301     0.0418     4.8380     2.7585  4821.9941     0.0590     0.3027 
 7070.2500  3687.6406   158.9191    22.1670     3.7017     0.0008     5.3925     5.3933     0.0181     3.7024     0.0008     5.3933     0.0133     3.8669     1.8575     5.3933     8.7535    -0.0308     0.0422     4.9487     2.7597  4817.3506     0.0940     0.3974 
 7070.5000  3687.7708   158.9223    18.6072     2.8035     0.0003     4.9178     4.9181     0.0345     2.8038     0.0003     4.9181     0.0201     3.1087     1.2801     4.9181     8.7588    -0.0316     0.0427     5.0594     2.7609  4812.7070     0.1255     0.4713 
 7070.7500  3687.9006   158.9254    17.7357     2.0303     0.0001     4.4759     4.4759     0.0597     2.0304     0.0001     4.4759     0.0268     2.4680     0.8130     4.4759     8.7589    -0.0302     0.0455     5.1202     2.7585  4839.2969     0.1437     0.5178 
 7071.0000  3688.0308   158.9285    16.8642     1.4952     0.0000     4.1204     4.1204     0.0889     1.4952     0.0000     4.1204     0.0330     1.9900     0.4826     4.1204     8.7590    -0.0287     0.0484     5.1811     2.7561  4865.8872     0.1449     0.5359 
 7071.2500  3688.1606   158.9317    19.2806     1.1992     0.0000     3.8614     3.8614     0.1101     1.1992     0.0000     3.8614     0.0440     1.6116     0.3110     3.8614     8.7564    -0.0252     0.0483     5.1940     2.7505  4816.2188     0.1256     0.5258 
 7071.5000  3688.2905   158.9348    21.6970     0.9956     0.0000     3.6666     3.6666     0.1311     0.9956     0.0000     3.6666     0.0700     1.2496     0.2786     3.6666     8.7538    -0.0216     0.0482     5.2069     2.7448  4766.5503     0.0929     0.4875 
 7071.7500  3688.4207   158.9380    29.6179     0.8176     0.0000     3.5275     3.5275     0.1719     0.8176     0.0000     3.5275     0.1277     0.9227     0.3248     3.5275     8.7500    -0.0137     0.0544     5.1150     2.7322  4811.2168     0.0605     0.4251 
 7072.0000  3688.5508   158.9411    37.5388     0.6623     0.0000     3.4707     3.4707     0.2610     0.6623     0.0000     3.4707     0.1666     0.7909     0.3683     3.4707     8.7461    -0.0059     0.0607     5.0230     2.7195  4855.8833     0.0399     0.3528 
 7072.2500  3688.6807   158.9443    49.2271     0.6151     0.0189     3.5590     3.5778     0.3538     0.6340     0.0189     3.5778     0.1900     0.8127     0.4267     3.5778     8.7511     0.0127     0.0794     4.7275     2.6895  4824.8955     0.0349     0.2957 
 7072.5000  3688.8105   158.9474    60.9155     0.6697     0.1460     3.7332     3.8792     0.3295     0.8157     0.1460     3.8792     0.1871     1.0058     0.6253     3.8792     8.7561     0.0313     0.0982     4.4321     2.6596  4793.9077     0.0419     0.2770 
 7072.7500  3688.9407   158.9506    71.2614     0.7996     0.5411     3.8529     4.3940     0.2039     1.3407     0.5411     4.3940     0.1528     1.4624     1.0879     4.3940     8.7659     0.0529     0.1102     4.0591     2.6248  4792.9219     0.0544     0.3002 
 7073.0000  3689.0706   158.9537    81.6072     0.9298     1.3624     3.7517     5.1141     0.1037     2.2923     1.3624     5.1141     0.1044     2.2880     1.8578     5.1141     8.7758     0.0745     0.1223     3.6862     2.5900  4791.9365     0.0662     0.3439 
 7073.2500  3689.2007   158.9568    85.5979     1.0850     2.5776     3.4313     6.0088     0.0551     3.6626     2.5776     6.0088     0.0561     3.6489     2.8981     6.0088     8.7733     0.0803     0.1378     3.4829     2.5806  4821.6406     0.0738     0.3745 
 7073.5000  3689.3306   158.9600    89.5886     1.3412     3.8189     3.1241     6.9430     0.0286     5.1601     3.8189     6.9430     0.0297     5.1324     3.9824     6.9430     8.7709     0.0862     0.1533     3.2797     2.5712  4851.3452     0.0684     0.3673 
 7073.7500  3689.4607   158.9631    92.9492     1.7155     4.8219     2.9652     7.7871     0.0137     6.5374     4.8219     7.7871     0.0149     6.4938     4.9156     7.7871     8.7718     0.0851     0.1548     3.2265     2.5730  4787.7568     0.0517     0.3189 
 7074.0000  3689.5906   158.9663    96.3099     2.0966     5.4838     2.9387     8.4225     0.0062     7.5804     5.4838     8.4225     0.0073     7.5175     5.5307     8.4225     8.7727     0.0839     0.1563     3.1733     2.5748  4724.1689     0.0259     0.2457 
 7074.2500  3689.7207   158.9694   101.7411     2.3439     5.7259     3.0038     8.7297     0.0039     8.0698     5.7259     8.7297     0.0052     7.9756     5.6981     8.7297     8.7868     0.0931     0.1696     3.1172     2.5601  4788.0146     0.0085     0.1716 
 7074.5000  3689.8506   158.9726   107.1723     2.4040     5.6795     3.0956     8.7751     0.0044     8.0835     5.6795     8.7751     0.0061     7.9677     5.4891     8.7751     8.8010     0.1022     0.1828     3.0612     2.5454  4851.8604     0.0008     0.1173 
 7074.7500  3689.9807   158.9757   107.4758     2.2624     5.5017     3.1411     8.6428     0.0072     7.7641     5.5017     8.6428     0.0091     7.6674     5.0405     8.6428     8.8049     0.1117     0.1902     3.0430     2.5300  4852.1631     0.0026     0.0945 
 7075.0000  3690.1106   158.9789   107.7793     1.9240     5.4335     3.0200     8.4535     0.0113     7.3575     5.4335     8.4535     0.0121     7.3266     4.6534     8.4535     8.8088     0.1213     0.1977     3.0249     2.5147  4852.4658     0.0059     0.1071 
 7075.2500  3690.2405   158.9820   103.2533     1.4459     5.6629     2.6556     8.3185     0.0139     7.1087     5.6629     8.3185     0.0122     7.1744     4.7027     8.3185     8.8040     0.1199     0.1887     3.0875     2.5170  4853.4238     0.0094     0.1535 
