~Version Information
 VERS.                  2.0:   CWLS log ASCII Standard -VERSION 2.0
 WRAP.                   NO:   One line per depth step
~Well Information Block
#MNEM.UNIT       Data Type    Information
#---------     -----------    ---------------------------
 STRT.F              5417.0000:
 STOP.F              8969.0000:
 STEP.F                 0.2500:
 NULL.               -999.2500:
~Parameter Information Block
#MNEM.UNIT       Value        Description
#---------     -----------    ---------------------------
~Curve Information Block
#MNEM.UNIT                 API CODE     Curve Description
#---------               -----------    ---------------------------
 DEPT.F                 00 000 000 000:  
 FPRES.PSIA             00 000 000 000:  FORMATION_PRESSURE                     
 FTEMP.DEGF             00 000 000 000:  FORMATION_TEMPERATURE                  
 GR  .api               00 000 000 000:  Gamma API                              
 MBVIT1.PU              00 000 000 000:  T1_IRREDUCIBLE_POROSITY_MAX(CUT-OFF,_SP
 MCBWT1.PU              00 000 000 000:  T1_MICRO-POROSITY                      
 MPHIT1.PU              00 000 000 000:  T1_EFFECTIVE_POROSITY                  
 MSIGT1.PU              00 000 000 000:  T1_TOTAL_POROSITY                      
 T1KCOAT.MD             00 000 000 000:  T1_DIST._COATES_PERMEABILITY           
 T1PIRRMX.PU            00 000 000 000:  T1_DIST._MAXIMUM_IRREDUCIBLE_POROSITY  
 T1PMIC.PU              00 000 000 000:  T1_DIST._MICRO-POROSITY                
 T1PTOT.PU              00 000 000 000:  T1_DIST._TOTAL_POROSITY                
 T2KCOAT.MD             00 000 000 000:  T2_DIST._COATES_PERMEABILITY           
 T2PIRRMX.PU            00 000 000 000:  T2_DIST._MAXIMUM_IRREDUCIBLE_POROSITY  
 T2PMIC.PU              00 000 000 000:  T2_DIST._MICRO-POROSITY                
 T2PTOT.PU              00 000 000 000:  T2_DIST._TOTAL_POROSITY                
 CALI.in                00 000 000 000:  Caliper                                
 DPHI.decp              00 000 000 000:  DensityPorosity                        
 NPHI.decp              00 000 000 000:  Neutron Porosity                       
 PE  .b/e               00 000 000 000:  Pe                                     
 RHOB.g/cc              00 000 000 000:  Density                                
 TENS.lbs               00 000 000 000:  Tension                                
 BPERMF.                00 000 000 000:                                         
 BBINF.                 00 000 000 000:                                         
~A  DEPT        FPRES      FTEMP      GR        MBVIT1     MCBWT1     MPHIT1     MSIGT1     T1KCOAT   T1PIRRMX    T1PMIC     T1PTOT     T2KCOAT   T2PIRRMX    T2PMIC     T2PTOT      CALI       DPHI       NPHI       PE         RHOB       TENS      BPERMF      BBINF  
# ...
 6362.5000  3319.4185   150.0181    92.0756     6.4794     0.0080     7.4273     7.4354     0.0065     6.4874     0.0080     7.4354     0.0032     6.7434     0.9855     7.4354     8.8193     0.1081     0.1904     2.9538     2.5359  4509.0928     0.0013     0.0087 
 6362.7500  3319.5483   150.0212    90.0656     6.1659     0.0006     7.2857     7.2863     0.0094     6.1664     0.0006     7.2863     0.0047     6.4550     0.7757     7.2863     8.8174     0.1071     0.1810     2.9496     2.5376  4506.7402     0.0022     0.0068 
 6363.0000  3319.6785   150.0244    88.0555     5.5558     0.0008     7.0230     7.0238     0.0170     5.5566     0.0008     7.0238     0.0085     5.9193     0.5977     7.0238     8.8154     0.1060     0.1715     2.9453     2.5393  4504.3882     0.0037     0.0067 
 6363.2500  3319.8086   150.0275    86.0400     4.8436     0.0102     6.7412     6.7514     0.0323     4.8538     0.0102     6.7514     0.0170     5.2616     0.6630     6.7514     8.8102     0.0978     0.1648     3.1235     2.5524  4557.2607     0.0065     0.0099 
 6363.5000  3319.9385   150.0307    84.0246     4.2274     0.0372     6.5100     6.5472     0.0533     4.2646     0.0372     6.5472     0.0295     4.6838     0.9914     6.5472     8.8049     0.0897     0.1581     3.3016     2.5656  4610.1333     0.0117     0.0179 
 6363.7500  3320.0684   150.0338    85.5294     3.7871     0.0921     6.3297     6.4218     0.0733     3.8792     0.0921     6.4218     0.0419     4.2937     1.4561     6.4218     8.8022     0.0879     0.1588     3.4632     2.5684  4565.2988     0.0201     0.0302 
 6364.0000  3320.1985   150.0370    87.0341     3.5727     0.1609     6.1812     6.3421     0.0790     3.7336     0.1609     6.3421     0.0473     4.1159     1.8565     6.3421     8.7994     0.0862     0.1596     3.6248     2.5712  4520.4644     0.0292     0.0432 
 6364.2500  3320.3284   150.0401    93.7677     3.5781     0.2324     6.0047     6.2371     0.0619     3.8105     0.2324     6.2371     0.0421     4.0855     2.0572     6.2371     8.8002     0.0890     0.1616     3.6223     2.5668  4568.5479     0.0345     0.0501 
 6364.5000  3320.4585   150.0432   100.5013     3.6808     0.2767     5.7614     6.0381     0.0377     3.9575     0.2767     6.0381     0.0304     4.0935     2.0241     6.0381     8.8010     0.0917     0.1636     3.6199     2.5624  4616.6309     0.0325     0.0466 
 6364.7500  3320.5884   150.0464   111.4386     3.8034     0.2712     5.4352     5.7063     0.0177     4.0746     0.2712     5.7063     0.0166     4.1048     1.7040     5.7063     8.7986     0.0971     0.1741     3.5062     2.5536  4570.2002     0.0237     0.0352 
 6365.0000  3320.7185   150.0495   122.3760     3.8834     0.2047     5.0418     5.2466     0.0061     4.0882     0.2047     5.2466     0.0060     4.0944     1.1439     5.2466     8.7963     0.1026     0.1847     3.3925     2.5449  4523.7695     0.0132     0.0241 
 6365.2500  3320.8484   150.0527   132.3139     3.8152     0.1087     4.6029     4.7116     0.0021     3.9238     0.1087     4.7116     0.0017     3.9874     0.5740     4.7116     8.7973     0.1125     0.1922     3.2940     2.5290  4537.3979     0.0050     0.0212 
 6365.5000  3320.9785   150.0558   142.2519     3.5714     0.0404     4.1663     4.2068     0.0009     3.6118     0.0404     4.2068     0.0005     3.7670     0.2095     4.2068     8.7983     0.1223     0.1997     3.1954     2.5131  4551.0264     0.0011     0.0306 
 6365.7500  3321.1084   150.0590   142.9146     3.2377     0.0089     3.8012     3.8102     0.0006     3.2466     0.0089     3.8102     0.0002     3.4778     0.0478     3.8102     8.7976     0.1262     0.1991     3.1396     2.5068  4519.7476     0.0000     0.0530 
 6366.0000  3321.2385   150.0621   143.5773     2.9426     0.0000     3.5663     3.5663     0.0007     2.9426     0.0000     3.5663     0.0002     3.1928     0.0036     3.5663     8.7968     0.1302     0.1984     3.0838     2.5004  4488.4688     0.0000     0.0864 
 6366.2500  3321.3684   150.0652   134.3604     2.7755     0.0000     3.5209     3.5209     0.0011     2.7755     0.0000     3.5209     0.0005     2.9969     0.0001     3.5209     8.8013     0.1247     0.1968     3.0712     2.5094  4508.8354     0.0013     0.1276 
 6366.5000  3321.4983   150.0684   125.1435     2.7142     0.0000     3.6324     3.6324     0.0020     2.7142     0.0000     3.6324     0.0012     2.8955     0.0012     3.6324     8.8059     0.1191     0.1952     3.0585     2.5183  4529.2021     0.0043     0.1714 
 6366.7500  3321.6284   150.0715   114.7436     2.7721     0.0000     3.9060     3.9060     0.0040     2.7721     0.0000     3.9060     0.0029     2.9014     0.0057     3.9060     8.8068     0.1127     0.1854     3.1603     2.5286  4539.1226     0.0095     0.2113 
 6367.0000  3321.7585   150.0747   104.3437     2.9646     0.0000     4.3140     4.3140     0.0072     2.9646     0.0000     4.3140     0.0064     3.0145     0.0192     4.3140     8.8077     0.1063     0.1756     3.2621     2.5389  4549.0430     0.0145     0.2395 
 6367.2500  3321.8884   150.0778   100.0147     3.2577     0.0000     4.7668     4.7668     0.0111     3.2577     0.0000     4.7668     0.0117     3.2334     0.0443     4.7668     8.8018     0.1024     0.1686     3.4111     2.5451  4535.5605     0.0186     0.2492 
 6367.5000  3322.0183   150.0810    95.6857     3.5335     0.0000     5.1319     5.1319     0.0142     3.5335     0.0000     5.1319     0.0159     3.4711     0.0739     5.1319     8.7960     0.0985     0.1615     3.5602     2.5514  4522.0781     0.0211     0.2368 
 6367.7500  3322.1484   150.0841   102.5162     3.7422     0.0000     5.3480     5.3480     0.0151     3.7422     0.0000     5.3480     0.0166     3.6877     0.0868     5.3480     8.7997     0.0990     0.1632     3.5628     2.5506  4516.8457     0.0225     0.2032 
 6368.0000  3322.2783   150.0872   109.3467     3.8721     0.0000     5.4153     5.4153     0.0137     3.8721     0.0000     5.4153     0.0132     3.8889     0.0724     5.4153     8.8035     0.0995     0.1649     3.5655     2.5498  4511.6133     0.0238     0.1556 
 6368.2500  3322.4084   150.0904   124.6270     3.8850     0.0002     5.3746     5.3749     0.0123     3.8852     0.0002     5.3749     0.0078     4.1241     0.0399     5.3749     8.8034     0.1077     0.1763     3.4588     2.5366  4529.4150     0.0268     0.1054 
 6368.5000  3322.5383   150.0935   139.9072     3.7543     0.0038     5.3248     5.3286     0.0142     3.7581     0.0038     5.3286     0.0036     4.4222     0.0148     5.3286     8.8032     0.1160     0.1878     3.3520     2.5233  4547.2168     0.0331     0.0653 
 6368.7500  3322.6682   150.0967   153.0580     3.5206     0.0299     5.3283     5.3583     0.0216     3.5505     0.0299     5.3583     0.0013     4.7716     0.0126     5.3583     8.7994     0.1264     0.1973     3.2889     2.5066  4524.4858     0.0415     0.0432 
 6369.0000  3322.7983   150.0998   166.2089     3.2979     0.1431     5.3828     5.5259     0.0342     3.4410     0.1431     5.5259     0.0005     5.1517     0.0711     5.5259     8.7956     0.1367     0.2069     3.2259     2.4899  4501.7549     0.0479     0.0404 
 6369.2500  3322.9285   150.1030   166.2025     3.1577     0.5183     5.3560     5.8743     0.0426     3.6760     0.5183     5.8743     0.0004     5.5370     0.3170     5.8743     8.7962     0.1372     0.2176     3.2108     2.4892  4525.7129     0.0482     0.0524 
 6369.5000  3323.0583   150.1061   166.1960     2.9545     1.2372     5.0943     6.3315     0.0419     4.1917     1.2372     6.3315     0.0008     5.9232     0.8298     6.3315     8.7968     0.1376     0.2282     3.1956     2.4884  4549.6709     0.0423     0.0733 
 6369.7500  3323.1882   150.1093   152.8177     2.6015     2.2066     4.6124     6.8190     0.0379     4.8081     2.2066     6.8190     0.0015     6.2969     1.5482     6.8190     8.7997     0.1292     0.2215     3.1714     2.5020  4525.8193     0.0336     0.0976 
 6370.0000  3323.3184   150.1124   139.4394     2.1802     3.1651     4.0933     7.2584     0.0356     5.3453     3.1651     7.2584     0.0025     6.6250     2.2721     7.2584     8.8026     0.1207     0.2147     3.1472     2.5157  4501.9683     0.0261     0.1206 
