~Version Information
 VERS.                  2.0:   CWLS log ASCII Standard -VERSION 2.0
 WRAP.                   NO:   One line per depth step
~Well Information Block
#MNEM.UNIT       Data Type    Information
#---------     -----------    ---------------------------
 STRT.F              5417.0000:
 STOP.F              8969.0000:
 STEP.F                 0.2500:
 NULL.               -999.2500:
~Parameter Information Block
#MNEM.UNIT       Value        Description
#---------     -----------    ---------------------------
~Curve Information Block
#MNEM.UNIT                 API CODE     Curve Description
#---------               -----------    ---------------------------
 DEPT.F                 00 000 000 000:  
 FPRES.PSIA             00 000 000 000:  FORMATION_PRESSURE                     
 FTEMP.DEGF             00 000 000 000:  FORMATION_TEMPERATURE                  
 GR  .api               00 000 000 000:  Gamma API                              
 MBVIT1.PU              00 000 000 000:  T1_IRREDUCIBLE_POROSITY_MAX(CUT-OFF,_SP
 MCBWT1.PU              00 000 000 000:  T1_MICRO-POROSITY                      
 MPHIT1.PU              00 000 000 000:  T1_EFFECTIVE_POROSITY                  
 MSIGT1.PU              00 000 000 000:  T1_TOTAL_POROSITY                      
 T1KCOAT.MD             00 000 000 000:  T1_DIST._COATES_PERMEABILITY           
 T1PIRRMX.PU            00 000 000 000:  T1_DIST._MAXIMUM_IRREDUCIBLE_POROSITY  
 T1PMIC.PU              00 000 000 000:  T1_DIST._MICRO-POROSITY                
 T1PTOT.PU              00 000 000 000:  T1_DIST._TOTAL_POROSITY                
 T2KCOAT.MD             00 000 000 000:  T2_DIST._COATES_PERMEABILITY           
 T2PIRRMX.PU            00 000 000 000:  T2_DIST._MAXIMUM_IRREDUCIBLE_POROSITY  
 T2PMIC.PU              00 000 000 000:  T2_DIST._MICRO-POROSITY                
 T2PTOT.PU              00 000 000 000:  T2_DIST._TOTAL_POROSITY                
 CALI.in                00 000 000 000:  Caliper                                
 DPHI.decp              00 000 000 000:  DensityPorosity                        
 NPHI.decp              00 000 000 000:  Neutron Porosity                       
 PE  .b/e               00 000 000 000:  Pe                                     
 RHOB.g/cc              00 000 000 000:  Density                                
 TENS.lbs               00 000 000 000:  Tension                                
 BPERMF.                00 000 000 000:                                         
 BBINF.                 00 000 000 000:                                         
~A  DEPT        FPRES      FTEMP      GR        MBVIT1     MCBWT1     MPHIT1     MSIGT1     T1KCOAT   T1PIRRMX    T1PMIC     T1PTOT     T2KCOAT   T2PIRRMX    T2PMIC     T2PTOT      CALI       DPHI       NPHI       PE         RHOB       TENS      BPERMF      BBINF  
# ...
 5889.7500  3073.3911   144.0725   106.4223     5.9129     1.5167     7.4584     8.9751     0.0281     7.4296     1.5167     8.9751     0.0251     7.5008     5.6528     8.9751     8.9102     0.0916     0.2050     2.9948     2.5626  4375.7378     0.0109     0.0342 
 5890.0000  3073.5210   144.0757   105.1788     4.7292     1.9371     6.5164     8.4535     0.0367     6.6663     1.9371     8.4535     0.0263     6.8912     5.0082     8.4535     8.9071     0.0921     0.2019     3.0096     2.5617  4367.3296     0.0169     0.0383 
 5890.2500  3073.6509   144.0788   103.9781     3.3398     2.3383     5.4127     7.7509     0.0482     5.6781     2.3383     7.7509     0.0242     6.1578     4.0805     7.7509     8.9089     0.0941     0.1962     2.9832     2.5585  4362.4453     0.0244     0.0534 
 5890.5000  3073.7810   144.0820   102.7774     2.4509     2.3809     4.6721     7.0531     0.0523     4.8319     2.3809     7.0531     0.0199     5.4972     3.1255     7.0531     8.9107     0.0960     0.1905     2.9569     2.5554  4357.5605     0.0298     0.0739 
 5890.7500  3073.9111   144.0851   103.5718     2.3468     2.1051     4.4326     6.5378     0.0404     4.4519     2.1051     6.5378     0.0144     5.1079     2.3634     6.5378     8.9064     0.1000     0.1891     2.9236     2.5490  4349.9092     0.0306     0.0929 
 5891.0000  3074.0410   144.0883   104.3662     2.8598     1.7455     4.5398     6.2853     0.0208     4.6053     1.7455     6.2853     0.0087     5.0835     1.8562     6.2853     8.9020     0.1040     0.1877     2.8904     2.5426  4342.2573     0.0252     0.1037 
 5891.2500  3074.1709   144.0914   106.4694     3.6593     1.4001     4.8806     6.2807     0.0093     5.0594     1.4001     6.2807     0.0043     5.3896     1.5194     6.2807     8.9004     0.1062     0.1885     2.9088     2.5391  4378.0342     0.0165     0.1024 
 5891.5000  3074.3010   144.0945   108.5726     4.4135     1.0993     5.2862     6.3855     0.0043     5.5128     1.0993     6.3855     0.0020     5.7675     1.2592     6.3855     8.8987     0.1084     0.1893     2.9273     2.5355  4413.8110     0.0074     0.0923 
 5891.7500  3074.4309   144.0977   103.6360     4.8315     1.0161     5.5070     6.5231     0.0024     5.8477     1.0161     6.5231     0.0011     6.0579     1.1137     6.5231     8.8928     0.0970     0.1874     3.0704     2.5539  4396.7207     0.0021     0.0804 
 5892.0000  3074.5610   144.1008    98.6995     4.6838     1.3276     5.2777     6.6053     0.0019     6.0114     1.3276     6.6053     0.0009     6.1777     1.1286     6.6053     8.8870     0.0855     0.1855     3.2136     2.5723  4379.6309     0.0000     0.0707 
 5892.2500  3074.6909   144.1040    84.2827     4.0842     1.8218     4.6732     6.4950     0.0018     5.9060     1.8218     6.4950     0.0010     6.0499     1.1980     6.4950     8.8631     0.0571     0.1666     3.4834     2.6181  4371.9458     0.0000     0.0614 
 5892.5000  3074.8210   144.1071    69.8658     3.5524     2.0248     4.1391     6.1639     0.0016     5.5771     2.0248     6.1639     0.0009     5.7151     1.1566     6.1639     8.8391     0.0287     0.1478     3.7533     2.6638  4364.2607     0.0000     0.0491 
 5892.7500  3074.9509   144.1103    58.8915     3.2614     1.8451     3.8109     5.6560     0.0012     5.1065     1.8451     5.6560     0.0007     5.2228     1.0116     5.6560     8.8351     0.0017     0.1258     3.9830     2.7073  4365.8516     0.0000     0.0341 
 5893.0000  3075.0811   144.1134    47.9173     3.0353     1.5706     3.5105     5.0810     0.0007     4.6059     1.5706     5.0810     0.0005     4.6832     0.8940     5.0810     8.8310    -0.0253     0.1038     4.2126     2.7508  4367.4424     0.0000     0.0198 
 5893.2500  3075.2109   144.1166    49.3246     2.6887     1.5511     3.0457     4.5968     0.0003     4.2398     1.5511     4.5968     0.0003     4.2767     0.9372     4.5968     8.8314    -0.0269     0.1006     4.2782     2.7532  4348.2959     0.0000     0.0097 
 5893.5000  3075.3411   144.1197    50.7319     2.3020     1.7674     2.5339     4.3013     0.0001     4.0694     1.7674     4.3013     0.0001     4.0805     1.1230     4.3013     8.8317    -0.0284     0.0975     4.3437     2.7556  4329.1494     0.0000     0.0052 
 5893.7500  3075.4709   144.1228    60.3369     1.9767     2.1346     2.1040     4.2386     0.0000     4.1114     2.1346     4.2386     0.0000     4.1063     1.4609     4.2386     8.8348    -0.0032     0.1080     4.1716     2.7150  4333.7095     0.0000     0.0066 
 5894.0000  3075.6011   144.1260    69.9418     1.6483     2.6716     1.7223     4.3939     0.0000     4.3199     2.6716     4.3939     0.0000     4.3033     1.9787     4.3939     8.8379     0.0221     0.1184     3.9996     2.6745  4338.2695     0.0000     0.0142 
 5894.2500  3075.7307   144.1291    80.0457     1.2133     3.3945     1.2914     4.6859     0.0000     4.6078     3.3945     4.6859     0.0000     4.5884     2.6663     4.6859     8.8654     0.0499     0.1449     3.6679     2.6297  4371.6885     0.0000     0.0269 
 5894.5000  3075.8608   144.1323    90.1496     0.7744     4.0681     0.8686     4.9367     0.0000     4.8424     4.0681     4.9367     0.0000     4.8281     3.3312     4.9367     8.8928     0.0777     0.1713     3.3363     2.5849  4405.1069     0.0000     0.0390 
 5894.7500  3075.9910   144.1354    94.9234     0.4678     4.4628     0.5667     5.0294     0.0000     4.9306     4.4628     5.0294     0.0000     4.9245     3.7604     5.0294     8.8937     0.0908     0.1757     3.1408     2.5637  4359.5552     0.0000     0.0433 
 5895.0000  3076.1211   144.1386    99.6973     0.3452     4.5056     0.4398     4.9454     0.0000     4.8508     4.5056     4.9454     0.0000     4.8490     3.8235     4.9454     8.8946     0.1040     0.1801     2.9453     2.5426  4314.0034     0.0000     0.0364 
 5895.2500  3076.2507   144.1417    99.1625     0.4292     4.2652     0.5318     4.7970     0.0000     4.6944     4.2652     4.7970     0.0000     4.6952     3.4995     4.7970     8.8924     0.1059     0.1816     2.9474     2.5394  4384.0166     0.0000     0.0227 
 5895.5000  3076.3809   144.1449    98.6277     0.7119     3.9005     0.8607     4.7612     0.0001     4.6123     3.9005     4.7612     0.0000     4.6248     2.9932     4.7612     8.8902     0.1079     0.1831     2.9495     2.5362  4454.0303     0.0000     0.0107 
 5895.7500  3076.5110   144.1480    99.2141     1.2616     3.3946     1.5204     4.9150     0.0002     4.6562     3.3946     4.9150     0.0001     4.7051     2.3856     4.9150     8.8887     0.1060     0.1880     2.9861     2.5392  4385.0752     0.0000     0.0055 
 5896.0000  3076.6409   144.1511    99.8006     2.0957     2.6961     2.5432     5.2394     0.0007     4.7918     2.6961     5.2394     0.0003     4.9158     1.7246     5.2394     8.8872     0.1042     0.1929     3.0226     2.5422  4316.1206     0.0000     0.0071 
 5896.2500  3076.7708   144.1543   103.7292     3.0761     1.9216     3.7361     5.6577     0.0018     4.9977     1.9216     5.6577     0.0009     5.1910     1.1778     5.6577     8.8978     0.1004     0.1984     3.0249     2.5483  4378.4434     0.0000     0.0132 
 5896.5000  3076.9009   144.1574   107.6578     3.9348     1.3281     4.7382     6.0662     0.0032     5.2629     1.3281     6.0662     0.0017     5.4601     0.8807     6.0662     8.9083     0.0967     0.2040     3.0272     2.5544  4440.7661     0.0000     0.0217 
 5896.7500  3077.0310   144.1606   110.1135     4.4450     1.0920     5.3235     6.4155     0.0043     5.5370     1.0920     6.4155     0.0030     5.6633     0.8874     6.4155     8.9097     0.0939     0.2036     3.0227     2.5589  4397.7969     0.0062     0.0318 
 5897.0000  3077.1609   144.1637   112.5692     4.4050     1.3299     5.3638     6.6936     0.0056     5.7349     1.3299     6.6936     0.0053     5.7574     1.2207     6.6936     8.9111     0.0910     0.2032     3.0181     2.5635  4354.8276     0.0229     0.0440 
 5897.2500  3077.2908   144.1669   111.5724     3.7047     2.1510     4.7769     6.9280     0.0077     5.8558     2.1510     6.9280     0.0088     5.7961     1.9366     6.9280     8.9211     0.0906     0.1987     3.0180     2.5640  4365.5488     0.0542     0.0592 
