~Version Information
 VERS.                  2.0:   CWLS log ASCII Standard -VERSION 2.0
 WRAP.                   NO:   One line per depth step
~Well Information Block
#MNEM.UNIT       Data Type    Information
#---------     -----------    ---------------------------
 STRT.F              5417.0000:
 STOP.F              8969.0000:
 STEP.F                 0.2500:
 NULL.               -999.2500:
~Parameter Information Block
#MNEM.UNIT       Value        Description
#---------     -----------    ---------------------------
~Curve Information Block
#MNEM.UNIT                 API CODE     Curve Description
#---------               -----------    ---------------------------
 DEPT.F                 00 000 000 000:  
 FPRES.PSIA             00 000 000 000:  FORMATION_PRESSURE                     
 FTEMP.DEGF             00 000 000 000:  FORMATION_TEMPERATURE                  
 GR  .api               00 000 000 000:  Gamma API                              
 MBVIT1.PU              00 000 000 000:  T1_IRREDUCIBLE_POROSITY_MAX(CUT-OFF,_SP
 MCBWT1.PU              00 000 000 000:  T1_MICRO-POROSITY                      
 MPHIT1.PU              00 000 000 000:  T1_EFFECTIVE_POROSITY                  
 MSIGT1.PU              00 000 000 000:  T1_TOTAL_POROSITY                      
 T1KCOAT.MD             00 000 000 000:  T1_DIST._COATES_PERMEABILITY           
 T1PIRRMX.PU            00 000 000 000:  T1_DIST._MAXIMUM_IRREDUCIBLE_POROSITY  
 T1PMIC.PU              00 000 000 000:  T1_DIST._MICRO-POROSITY                
 T1PTOT.PU              00 000 000 000:  T1_DIST._TOTAL_POROSITY                
 T2KCOAT.MD             00 000 000 000:  T2_DIST._COATES_PERMEABILITY           
 T2PIRRMX.PU            00 000 000 000:  T2_DIST._MAXIMUM_IRREDUCIBLE_POROSITY  
 T2PMIC.PU              00 000 000 000:  T2_DIST._MICRO-POROSITY                
 T2PTOT.PU              00 000 000 000:  T2_DIST._TOTAL_POROSITY                
 CALI.in                00 000 000 000:  Caliper                                
 DPHI.decp              00 000 000 000:  DensityPorosity                        
 NPHI.decp              00 000 000 000:  Neutron Porosity                       
 PE  .b/e               00 000 000 000:  Pe                                     
 RHOB.g/cc              00 000 000 000:  Density                                
 TENS.lbs               00 000 000 000:  Tension                                
 BPERMF.                00 000 000 000:                                         
 BBINF.                 00 000 000 000:                                         
~A  DEPT        FPRES      FTEMP      GR        MBVIT1     MCBWT1     MPHIT1     MSIGT1     T1KCOAT   T1PIRRMX    T1PMIC     T1PTOT     T2KCOAT   T2PIRRMX    T2PMIC     T2PTOT      CALI       DPHI       NPHI       PE         RHOB       TENS      BPERMF      BBINF  
# ...
 6835.2500  3565.3420   155.9636    71.0483     2.9205     0.3454     4.6334     4.9787     0.0170     3.2658     0.3454     4.9787     0.0029     4.0978     0.1037     4.9787     8.8089     0.0736     0.1350     3.7602     2.5914  4756.5850     0.0267     0.0976 
 6835.5000  3565.4719   155.9668    77.1888     2.7048     0.8941     4.2311     5.1252     0.0125     3.5988     0.8941     5.1252     0.0052     4.0308     0.3576     5.1252     8.8090     0.0764     0.1412     3.6645     2.5869  4772.0620     0.0249     0.0967 
 6835.7500  3565.6018   155.9699    85.8168     2.3283     1.7536     3.7054     5.4590     0.0101     4.0819     1.7536     5.4590     0.0075     4.2300     0.8504     5.4590     8.8167     0.0860     0.1555     3.4374     2.5715  4746.1104     0.0205     0.0830 
 6836.0000  3565.7322   155.9731    94.4449     1.8834     2.7778     3.2113     5.9891     0.0104     4.6613     2.7778     5.9891     0.0102     4.6747     1.5882     5.9891     8.8245     0.0955     0.1697     3.2104     2.5562  4720.1582     0.0148     0.0613 
 6836.2500  3565.8618   155.9762   100.5003     1.5781     3.6576     2.9345     6.5921     0.0127     5.2357     3.6576     6.5921     0.0139     5.1890     2.4640     6.5921     8.8223     0.1053     0.1813     3.0482     2.5405  4750.5801     0.0098     0.0396 
 6836.5000  3565.9919   155.9793   106.5556     1.5653     4.1192     2.9655     7.0847     0.0153     5.6846     4.1192     7.0847     0.0177     5.6003     3.2182     7.0847     8.8201     0.1151     0.1928     2.8860     2.5247  4781.0015     0.0065     0.0241 
 6836.7500  3566.1218   155.9825   107.9405     1.9723     3.9663     3.3996     7.3659     0.0170     5.9385     3.9663     7.3659     0.0199     5.8459     3.6129     7.3659     8.8254     0.1182     0.2023     2.8614     2.5196  4781.0967     0.0051     0.0160 
 6837.0000  3566.2520   155.9856   109.3253     2.8125     3.1470     4.2505     7.3974     0.0174     5.9595     3.1470     7.3974     0.0188     5.9162     3.4750     7.3974     8.8308     0.1214     0.2117     2.8367     2.5146  4781.1919     0.0057     0.0146 
 6837.2500  3566.3818   155.9888   106.3260     3.8070     1.9432     5.2321     7.1753     0.0163     5.7502     1.9432     7.1753     0.0153     5.7857     2.8404     7.1753     8.8292     0.1204     0.2088     2.8670     2.5161  4790.3389     0.0082     0.0210 
 6837.5000  3566.5120   155.9919   103.3266     4.5188     0.9055     5.8868     6.7924     0.0136     5.4243     0.9055     6.7924     0.0118     5.5003     2.1042     6.7924     8.8275     0.1195     0.2060     2.8974     2.5176  4799.4863     0.0123     0.0396 
 6837.7500  3566.6418   155.9951   100.1003     4.7760     0.2912     6.0407     6.3319     0.0101     5.0672     0.2912     6.3319     0.0089     5.1298     1.5655     6.3319     8.8222     0.1229     0.2032     2.8670     2.5121  4810.5942     0.0168     0.0746 
 6838.0000  3566.7720   155.9982    96.8741     4.6801     0.0485     5.8423     5.8908     0.0073     4.7286     0.0485     5.8908     0.0068     4.7571     1.3124     5.8908     8.8168     0.1263     0.2004     2.8365     2.5066  4821.7021     0.0207     0.1243 
 6838.2500  3566.9019   156.0014    94.7468     4.4423     0.0077     5.5906     5.5982     0.0065     4.4500     0.0077     5.5982     0.0061     4.4812     1.2758     5.5982     8.8152     0.1273     0.1906     2.8047     2.5051  4778.6270     0.0238     0.1785 
 6838.5000  3567.0317   156.0045    92.6195     4.2600     0.0187     5.4882     5.5069     0.0076     4.2787     0.0187     5.5069     0.0064     4.3576     1.3017     5.5069     8.8136     0.1282     0.1809     2.7730     2.5036  4735.5513     0.0260     0.2225 
 6838.7500  3567.1619   156.0077    87.7750     4.2223     0.0529     5.5802     5.6331     0.0102     4.2752     0.0529     5.6331     0.0072     4.4440     1.3722     5.6331     8.8141     0.1174     0.1736     2.9172     2.5210  4787.1636     0.0276     0.2447 
 6839.0000  3567.2920   156.0108    82.9305     4.3481     0.1052     5.8308     5.9360     0.0138     4.4533     0.1052     5.9360     0.0082     4.7240     1.4754     5.9360     8.8146     0.1066     0.1663     3.0613     2.5384  4838.7759     0.0281     0.2423 
 6839.2500  3567.4219   156.0139    78.3204     4.5904     0.1546     6.1580     6.3127     0.0174     4.7451     0.1546     6.3127     0.0088     5.1097     1.4903     6.3127     8.8120     0.0950     0.1566     3.3306     2.5571  4766.8691     0.0273     0.2195 
 6839.5000  3567.5518   156.0171    73.7104     4.7668     0.2242     6.4036     6.6278     0.0208     4.9910     0.2242     6.6278     0.0087     5.4692     1.3979     6.6278     8.8093     0.0833     0.1469     3.5999     2.5758  4694.9624     0.0251     0.1833 
 6839.7500  3567.6819   156.0202    74.4855     4.7553     0.3830     6.4499     6.8329     0.0237     5.1383     0.3830     6.8329     0.0079     5.7414     1.3543     6.8329     8.8056     0.0889     0.1440     3.6863     2.5668  4752.6807     0.0212     0.1398 
 6840.0000  3567.8120   156.0234    75.2606     4.4664     0.7353     6.2195     6.9548     0.0266     5.2017     0.7353     6.9548     0.0078     5.8805     1.5581     6.9548     8.8019     0.0945     0.1411     3.7728     2.5579  4810.3984     0.0158     0.0954 
 6840.2500  3567.9419   156.0265    80.4348     3.8386     1.3538     5.6720     7.0258     0.0304     5.1924     1.3538     7.0258     0.0104     5.8281     1.9967     7.0258     8.8043     0.1109     0.1537     3.5394     2.5315  4804.2539     0.0101     0.0562 
 6840.5000  3568.0718   156.0296    85.6091     3.0472     2.0347     4.9917     7.0264     0.0357     5.0819     2.0347     7.0264     0.0159     5.6033     2.3204     7.0264     8.8067     0.1272     0.1662     3.3060     2.5052  4798.1089     0.0054     0.0274 
 6840.7500  3568.2017   156.0328   102.0183     2.2950     2.5308     4.3666     6.8974     0.0418     4.8259     2.5308     6.8974     0.0239     5.2089     2.3346     6.8974     8.8056     0.1366     0.1775     3.0114     2.4901  4759.2344     0.0029     0.0106 
 6841.0000  3568.3320   156.0359   118.4276     1.7453     2.6544     3.9957     6.6502     0.0512     4.3998     2.6544     6.6502     0.0346     4.6816     2.0481     6.6502     8.8046     0.1459     0.1888     2.7168     2.4750  4720.3594     0.0042     0.0040 
 6841.2500  3568.4619   156.0391   138.4721     1.4655     2.3613     4.0537     6.4150     0.0788     3.8268     2.3613     6.4150     0.0499     4.1636     1.6044     6.4150     8.8100     0.1452     0.1960     2.6192     2.4762  4752.0361     0.0117     0.0056 
 6841.5000  3568.5918   156.0422   158.5166     1.4176     1.8306     4.4162     6.2468     0.1327     3.2482     1.8306     6.2468     0.0678     3.7504     1.1104     6.2468     8.8154     0.1444     0.2031     2.5215     2.4775  4783.7124     0.0277     0.0152 
 6841.7500  3568.7217   156.0454   157.4572     1.5589     1.2244     4.8582     6.0826     0.1938     2.7833     1.2244     6.0826     0.0782     3.4647     0.6356     6.0826     8.8142     0.1384     0.2037     2.5654     2.4871  4739.5278     0.0511     0.0354 
 6842.0000  3568.8521   156.0485   156.3978     1.8403     0.6880     5.1811     5.8691     0.2072     2.5283     0.6880     5.8691     0.0701     3.3184     0.2699     5.8691     8.8131     0.1324     0.2044     2.6093     2.4968  4695.3433     0.0754     0.0682 
 6842.2500  3568.9817   156.0517   137.8913     2.3119     0.3395     5.3529     5.6924     0.1412     2.6514     0.3395     5.6924     0.0482     3.4002     0.1199     5.6924     8.8093     0.1302     0.1951     2.6549     2.5005  4730.9468     0.0927     0.1129 
 6842.5000  3569.1118   156.0548   119.3847     2.9756     0.1488     5.5336     5.6824     0.0729     3.1245     0.1488     5.6824     0.0310     3.6842     0.1601     5.6824     8.8055     0.1279     0.1858     2.7004     2.5041  4766.5503     0.0991     0.1644 
 6842.7500  3569.2417   156.0580   105.2591     3.7114     0.0879     5.8026     5.8905     0.0373     3.7994     0.0879     5.8905     0.0232     4.0952     0.3652     5.8905     8.8078     0.1285     0.1788     2.7695     2.5031  4757.6382     0.0965     0.2160 
